{
  "9": {
    "-84": [
      {
        "type": "Feature",
        "properties": {
          "name": "La Angelina",
          "type": "trail"
        },
        "geometry": {
          "type": "Point",
          "coordinates": [
            -83.946464,
            9.907258
          ]
        }
      }
    ]
  },
  "10": {
    "-85": [
      {
        "type": "Feature",
        "properties": {
          "name": "Adventure Park",
          "type": "trail"
        },
        "geometry": {
          "type": "Point",
          "coordinates": [
            -84.105974,
            10.081804
          ]
        }
      },
      {
        "type": "Feature",
        "properties": {
          "name": "Sky Wild",
          "type": "downhill"
        },
        "geometry": {
          "type": "Point",
          "coordinates": [
            -84.736238,
            10.424486
          ]
        }
      }
    ],
    "-86": [
      {
        "type": "Feature",
        "properties": {
          "name": "Las Catalinas",
          "type": "trail"
        },
        "geometry": {
          "type": "Point",
          "coordinates": [
            -85.786568,
            10.483067
          ]
        }
      },
      {
        "type": "Feature",
        "properties": {
          "name": "Rio Perdido",
          "type": "trail"
        },
        "geometry": {
          "type": "Point",
          "coordinates": [
            -85.200605,
            10.600503
          ]
        }
      }
    ]
  },
  "20": {
    "-88": [
      {
        "type": "Feature",
        "properties": {
          "name": "Punta Venado",
          "type": "trail"
        },
        "geometry": {
          "type": "Point",
          "coordinates": [
            -87.177994,
            20.563367
          ]
        }
      }
    ]
  },
  "34": {
    "74": [
      {
        "type": "Feature",
        "properties": {
          "name": "Gulmarg Kashmir",
          "type": "downhill"
        },
        "geometry": {
          "type": "Point",
          "coordinates": [
            74.23,
            34.02
          ]
        }
      }
    ],
    "-117": [
      {
        "type": "Feature",
        "properties": {
          "name": "Snow Summit",
          "type": "downhill"
        },
        "geometry": {
          "type": "Point",
          "coordinates": [
            -116.888754,
            34.236176
          ]
        }
      }
    ]
  },
  "35": {
    "138": [
      {
        "type": "Feature",
        "properties": {
          "name": "Fujimi Panorama",
          "type": "downhill"
        },
        "geometry": {
          "type": "Point",
          "coordinates": [
            138.207664,
            35.912967
          ]
        }
      }
    ],
    "-83": [
      {
        "type": "Feature",
        "properties": {
          "name": "Bailey Mountain",
          "type": "downhill"
        },
        "geometry": {
          "type": "Point",
          "coordinates": [
            -82.568216,
            35.835203
          ]
        }
      }
    ],
    "-107": [
      {
        "type": "Feature",
        "properties": {
          "name": "Pajarito",
          "type": "downhill"
        },
        "geometry": {
          "type": "Point",
          "coordinates": [
            -106.390657,
            35.894821
          ]
        }
      }
    ]
  },
  "36": {
    "-106": [
      {
        "type": "Feature",
        "properties": {
          "name": "Angel Fire",
          "type": "downhill"
        },
        "geometry": {
          "type": "Point",
          "coordinates": [
            -105.273914,
            36.387157
          ]
        }
      },
      {
        "type": "Feature",
        "properties": {
          "name": "Taos Bike Park",
          "type": "downhill"
        },
        "geometry": {
          "type": "Point",
          "coordinates": [
            -105.449608,
            36.594932
          ]
        }
      }
    ],
    "-82": [
      {
        "type": "Feature",
        "properties": {
          "name": "Beech Mountain",
          "type": "downhill"
        },
        "geometry": {
          "type": "Point",
          "coordinates": [
            -81.877995,
            36.194678
          ]
        }
      }
    ]
  },
  "37": {
    "-4": [
      {
        "type": "Feature",
        "properties": {
          "name": "Sierra Nevada",
          "type": "downhill"
        },
        "geometry": {
          "type": "Point",
          "coordinates": [
            -3.396749,
            37.093595
          ]
        }
      }
    ],
    "-120": [
      {
        "type": "Feature",
        "properties": {
          "name": "China Peak",
          "type": "downhill"
        },
        "geometry": {
          "type": "Point",
          "coordinates": [
            -119.157844,
            37.23483
          ]
        }
      },
      {
        "type": "Feature",
        "properties": {
          "name": "Mammoth Mountain",
          "type": "downhill"
        },
        "geometry": {
          "type": "Point",
          "coordinates": [
            -119.036951,
            37.652092
          ]
        }
      }
    ]
  },
  "38": {
    "23": [
      {
        "type": "Feature",
        "properties": {
          "name": "Dirfis Gravity Park",
          "type": "trail"
        },
        "geometry": {
          "type": "Point",
          "coordinates": [
            23.852831,
            38.600669
          ]
        }
      },
      {
        "type": "Feature",
        "properties": {
          "name": "Marathon Bike Park",
          "type": "trail"
        },
        "geometry": {
          "type": "Point",
          "coordinates": [
            23.98279,
            38.087131
          ]
        }
      }
    ],
    "-1": [
      {
        "type": "Feature",
        "properties": {
          "name": "La Fenasosa",
          "type": "downhill"
        },
        "geometry": {
          "type": "Point",
          "coordinates": [
            -0.637083,
            38.680096
          ]
        }
      }
    ],
    "-79": [
      {
        "type": "Feature",
        "properties": {
          "name": "Bryce",
          "type": "downhill"
        },
        "geometry": {
          "type": "Point",
          "coordinates": [
            -78.765695,
            38.817465
          ]
        }
      }
    ],
    "-107": [
      {
        "type": "Feature",
        "properties": {
          "name": "Evolution Crested Butte",
          "type": "downhill"
        },
        "geometry": {
          "type": "Point",
          "coordinates": [
            -106.987823,
            38.869715
          ]
        }
      }
    ],
    "-121": [
      {
        "type": "Feature",
        "properties": {
          "name": "Kirkwood",
          "type": "downhill"
        },
        "geometry": {
          "type": "Point",
          "coordinates": [
            -120.073099,
            38.689195
          ]
        }
      }
    ],
    "-86": [
      {
        "type": "Feature",
        "properties": {
          "name": "Mega Underground Bike Park",
          "type": "indoor"
        },
        "geometry": {
          "type": "Point",
          "coordinates": [
            -85.704094,
            38.201421
          ]
        }
      }
    ],
    "-80": [
      {
        "type": "Feature",
        "properties": {
          "name": "Snowshoe",
          "type": "downhill"
        },
        "geometry": {
          "type": "Point",
          "coordinates": [
            -79.996519,
            38.413047
          ]
        }
      }
    ]
  },
  "39": {
    "-106": [
      {
        "type": "Feature",
        "properties": {
          "name": "Keystone",
          "type": "downhill"
        },
        "geometry": {
          "type": "Point",
          "coordinates": [
            -105.95026,
            39.60582
          ]
        }
      },
      {
        "type": "Feature",
        "properties": {
          "name": "Trestle",
          "type": "downhill"
        },
        "geometry": {
          "type": "Point",
          "coordinates": [
            -105.763062,
            39.891654
          ]
        }
      }
    ],
    "-121": [
      {
        "type": "Feature",
        "properties": {
          "name": "Northstar California Resort",
          "type": "downhill"
        },
        "geometry": {
          "type": "Point",
          "coordinates": [
            -120.120735,
            39.274989
          ]
        }
      }
    ],
    "-107": [
      {
        "type": "Feature",
        "properties": {
          "name": "Snowmass Bike Park",
          "type": "downhill"
        },
        "geometry": {
          "type": "Point",
          "coordinates": [
            -106.939631,
            39.212094
          ]
        }
      },
      {
        "type": "Feature",
        "properties": {
          "name": "Vail",
          "type": "downhill"
        },
        "geometry": {
          "type": "Point",
          "coordinates": [
            -106.373402,
            39.639091
          ]
        }
      }
    ]
  },
  "40": {
    "-9": [
      {
        "type": "Feature",
        "properties": {
          "name": "More",
          "type": "downhill"
        },
        "geometry": {
          "type": "Point",
          "coordinates": [
            -8.330403,
            40.000037
          ]
        }
      }
    ],
    "-76": [
      {
        "type": "Feature",
        "properties": {
          "name": "Blue Mountain Bike Park  ",
          "type": "downhill"
        },
        "geometry": {
          "type": "Point",
          "coordinates": [
            -75.521344,
            40.81066
          ]
        }
      }
    ],
    "-112": [
      {
        "type": "Feature",
        "properties": {
          "name": "Canyons",
          "type": "downhill"
        },
        "geometry": {
          "type": "Point",
          "coordinates": [
            -111.553505,
            40.68625
          ]
        }
      }
    ],
    "-106": [
      {
        "type": "Feature",
        "properties": {
          "name": "Granby Ranch Bike Park",
          "type": "downhill"
        },
        "geometry": {
          "type": "Point",
          "coordinates": [
            -105.905385,
            40.044303
          ]
        }
      },
      {
        "type": "Feature",
        "properties": {
          "name": "Valmont",
          "type": "urban"
        },
        "geometry": {
          "type": "Point",
          "coordinates": [
            -105.224004,
            40.013949
          ]
        }
      }
    ],
    "-80": [
      {
        "type": "Feature",
        "properties": {
          "name": "Seven Springs",
          "type": "downhill"
        },
        "geometry": {
          "type": "Point",
          "coordinates": [
            -79.294853,
            40.022882
          ]
        }
      }
    ],
    "-107": [
      {
        "type": "Feature",
        "properties": {
          "name": "Steamboat",
          "type": "downhill"
        },
        "geometry": {
          "type": "Point",
          "coordinates": [
            -106.804276,
            40.457332
          ]
        }
      }
    ]
  },
  "41": {
    "2": [
      {
        "type": "Feature",
        "properties": {
          "name": "La Poma",
          "type": "urban"
        },
        "geometry": {
          "type": "Point",
          "coordinates": [
            2.35204,
            41.501938
          ]
        }
      }
    ],
    "24": [
      {
        "type": "Feature",
        "properties": {
          "name": "Velo Park Pamporovo",
          "type": "downhill"
        },
        "geometry": {
          "type": "Point",
          "coordinates": [
            24.690264,
            41.642241
          ]
        }
      },
      {
        "type": "Feature",
        "properties": {
          "name": "Xanthi MTB Park",
          "type": "trail"
        },
        "geometry": {
          "type": "Point",
          "coordinates": [
            24.88649,
            41.130036
          ]
        }
      }
    ],
    "-9": [
      {
        "type": "Feature",
        "properties": {
          "name": "Ponte de Lima",
          "type": "downhill"
        },
        "geometry": {
          "type": "Point",
          "coordinates": [
            -8.659952,
            41.817804
          ]
        }
      }
    ],
    "-4": [
      {
        "type": "Feature",
        "properties": {
          "name": "La Pinilla",
          "type": "downhill"
        },
        "geometry": {
          "type": "Point",
          "coordinates": [
            -3.471851,
            41.204197
          ]
        }
      }
    ],
    "-75": [
      {
        "type": "Feature",
        "properties": {
          "name": "Mountain Creek",
          "type": "downhill"
        },
        "geometry": {
          "type": "Point",
          "coordinates": [
            -74.505027,
            41.190853
          ]
        }
      }
    ],
    "-82": [
      {
        "type": "Feature",
        "properties": {
          "name": "Rays MTB Cleveland",
          "type": "indoor"
        },
        "geometry": {
          "type": "Point",
          "coordinates": [
            -81.751397,
            41.454648
          ]
        }
      }
    ]
  },
  "42": {
    "0": [
      {
        "type": "Feature",
        "properties": {
          "name": "Zona Zero",
          "type": "trail"
        },
        "geometry": {
          "type": "Point",
          "coordinates": [
            0.140381,
            42.414694
          ]
        }
      }
    ],
    "1": [
      {
        "type": "Feature",
        "properties": {
          "name": "Soldeu",
          "type": "downhill"
        },
        "geometry": {
          "type": "Point",
          "coordinates": [
            1.648293,
            42.578114
          ]
        }
      },
      {
        "type": "Feature",
        "properties": {
          "name": "Vallnord",
          "type": "downhill"
        },
        "geometry": {
          "type": "Point",
          "coordinates": [
            1.500502,
            42.631692
          ]
        }
      },
      {
        "type": "Feature",
        "properties": {
          "name": "La Molina",
          "type": "downhill"
        },
        "geometry": {
          "type": "Point",
          "coordinates": [
            1.956698,
            42.344691
          ]
        }
      }
    ],
    "2": [
      {
        "type": "Feature",
        "properties": {
          "name": "Les Angles",
          "type": "downhill"
        },
        "geometry": {
          "type": "Point",
          "coordinates": [
            2.069236,
            42.574822
          ]
        }
      }
    ],
    "13": [
      {
        "type": "Feature",
        "properties": {
          "name": "Prato Selva",
          "type": "downhill"
        },
        "geometry": {
          "type": "Point",
          "coordinates": [
            13.491812,
            42.52353
          ]
        }
      }
    ],
    "23": [
      {
        "type": "Feature",
        "properties": {
          "name": "Borovets",
          "type": "downhill"
        },
        "geometry": {
          "type": "Point",
          "coordinates": [
            23.36252,
            42.15526
          ]
        }
      }
    ],
    "-8": [
      {
        "type": "Feature",
        "properties": {
          "name": "Manzaneda",
          "type": "downhill"
        },
        "geometry": {
          "type": "Point",
          "coordinates": [
            -7.292519,
            42.274387
          ]
        }
      }
    ],
    "-74": [
      {
        "type": "Feature",
        "properties": {
          "name": "Jiminy Peak",
          "type": "downhill"
        },
        "geometry": {
          "type": "Point",
          "coordinates": [
            -73.291099,
            42.555954
          ]
        }
      }
    ],
    "-73": [
      {
        "type": "Feature",
        "properties": {
          "name": "Mount Snow",
          "type": "downhill"
        },
        "geometry": {
          "type": "Point",
          "coordinates": [
            -72.895274,
            42.967572
          ]
        }
      },
      {
        "type": "Feature",
        "properties": {
          "name": "Thunder Mountain",
          "type": "downhill"
        },
        "geometry": {
          "type": "Point",
          "coordinates": [
            -72.87702,
            42.620961
          ]
        }
      }
    ],
    "-75": [
      {
        "type": "Feature",
        "properties": {
          "name": "Plattekill",
          "type": "downhill"
        },
        "geometry": {
          "type": "Point",
          "coordinates": [
            -74.651241,
            42.288739
          ]
        }
      },
      {
        "type": "Feature",
        "properties": {
          "name": "Windham Mountain",
          "type": "downhill"
        },
        "geometry": {
          "type": "Point",
          "coordinates": [
            -74.258866,
            42.297682
          ]
        }
      }
    ]
  },
  "43": {
    "20": [
      {
        "type": "Feature",
        "properties": {
          "name": "Kopaonik",
          "type": "downhill"
        },
        "geometry": {
          "type": "Point",
          "coordinates": [
            20.805503,
            43.286579
          ]
        }
      }
    ],
    "-80": [
      {
        "type": "Feature",
        "properties": {
          "name": "Joyride 150",
          "type": "indoor"
        },
        "geometry": {
          "type": "Point",
          "coordinates": [
            -79.272706,
            43.87643
          ]
        }
      }
    ],
    "-77": [
      {
        "type": "Feature",
        "properties": {
          "name": "Cranx",
          "type": "indoor"
        },
        "geometry": {
          "type": "Point",
          "coordinates": [
            -76.090689,
            43.077254
          ]
        }
      }
    ],
    "-117": [
      {
        "type": "Feature",
        "properties": {
          "name": "Eagle Bike Park",
          "type": "trail"
        },
        "geometry": {
          "type": "Point",
          "coordinates": [
            -116.314917,
            43.713471
          ]
        }
      }
    ],
    "-73": [
      {
        "type": "Feature",
        "properties": {
          "name": "EVOlution Mount Sunapee",
          "type": "downhill"
        },
        "geometry": {
          "type": "Point",
          "coordinates": [
            -72.080373,
            43.33142
          ]
        }
      },
      {
        "type": "Feature",
        "properties": {
          "name": "Killington",
          "type": "downhill"
        },
        "geometry": {
          "type": "Point",
          "coordinates": [
            -72.7803,
            43.6775
          ]
        }
      },
      {
        "type": "Feature",
        "properties": {
          "name": "Okemo Mountain Resort",
          "type": "downhill"
        },
        "geometry": {
          "type": "Point",
          "coordinates": [
            -72.717042,
            43.401907
          ]
        }
      }
    ],
    "-111": [
      {
        "type": "Feature",
        "properties": {
          "name": "Grand Targhee",
          "type": "downhill"
        },
        "geometry": {
          "type": "Point",
          "coordinates": [
            -110.957623,
            43.787421
          ]
        }
      },
      {
        "type": "Feature",
        "properties": {
          "name": "Jackson Hole",
          "type": "downhill"
        },
        "geometry": {
          "type": "Point",
          "coordinates": [
            -110.826988,
            43.587315
          ]
        }
      }
    ],
    "-72": [
      {
        "type": "Feature",
        "properties": {
          "name": "Highland Mountain",
          "type": "downhill"
        },
        "geometry": {
          "type": "Point",
          "coordinates": [
            -71.519623,
            43.44245
          ]
        }
      }
    ],
    "-89": [
      {
        "type": "Feature",
        "properties": {
          "name": "Little Switzerland",
          "type": "downhill"
        },
        "geometry": {
          "type": "Point",
          "coordinates": [
            -88.280882,
            43.338685
          ]
        }
      },
      {
        "type": "Feature",
        "properties": {
          "name": "Rays MTB Milwaukee",
          "type": "indoor"
        },
        "geometry": {
          "type": "Point",
          "coordinates": [
            -88.00646,
            43.16973
          ]
        }
      }
    ],
    "-122": [
      {
        "type": "Feature",
        "properties": {
          "name": "Mt Bachelor",
          "type": "downhill"
        },
        "geometry": {
          "type": "Point",
          "coordinates": [
            -121.664486,
            43.998363
          ]
        }
      }
    ],
    "-75": [
      {
        "type": "Feature",
        "properties": {
          "name": "Oak Mountain ",
          "type": "downhill"
        },
        "geometry": {
          "type": "Point",
          "coordinates": [
            -74.362215,
            43.518115
          ]
        }
      }
    ]
  },
  "44": {
    "6": [
      {
        "type": "Feature",
        "properties": {
          "name": "Les Orres",
          "type": "downhill"
        },
        "geometry": {
          "type": "Point",
          "coordinates": [
            6.547609,
            44.515152
          ]
        }
      },
      {
        "type": "Feature",
        "properties": {
          "name": "Orcieres Merlette 1850 ",
          "type": "downhill"
        },
        "geometry": {
          "type": "Point",
          "coordinates": [
            6.32323,
            44.697406
          ]
        }
      },
      {
        "type": "Feature",
        "properties": {
          "name": "Pra Loup",
          "type": "downhill"
        },
        "geometry": {
          "type": "Point",
          "coordinates": [
            6.602097,
            44.36884
          ]
        }
      }
    ],
    "8": [
      {
        "type": "Feature",
        "properties": {
          "name": "Beigua Freeride",
          "type": "trail"
        },
        "geometry": {
          "type": "Point",
          "coordinates": [
            8.542629,
            44.42618
          ]
        }
      },
      {
        "type": "Feature",
        "properties": {
          "name": "Finale Ligure",
          "type": "trail"
        },
        "geometry": {
          "type": "Point",
          "coordinates": [
            8.337936,
            44.169646
          ]
        }
      }
    ],
    "10": [
      {
        "type": "Feature",
        "properties": {
          "name": "Cimone",
          "type": "downhill"
        },
        "geometry": {
          "type": "Point",
          "coordinates": [
            10.770636,
            44.228965
          ]
        }
      }
    ],
    "-81": [
      {
        "type": "Feature",
        "properties": {
          "name": "Blue Mountain",
          "type": "downhill"
        },
        "geometry": {
          "type": "Point",
          "coordinates": [
            -80.312571,
            44.504164
          ]
        }
      }
    ],
    "-80": [
      {
        "type": "Feature",
        "properties": {
          "name": "Hardwood",
          "type": "trail"
        },
        "geometry": {
          "type": "Point",
          "coordinates": [
            -79.589298,
            44.517575
          ]
        }
      }
    ],
    "-72": [
      {
        "type": "Feature",
        "properties": {
          "name": "Attitash Bike Park",
          "type": "downhill"
        },
        "geometry": {
          "type": "Point",
          "coordinates": [
            -71.232777,
            44.08216
          ]
        }
      },
      {
        "type": "Feature",
        "properties": {
          "name": "Burke Mountain Bike Park",
          "type": "downhill"
        },
        "geometry": {
          "type": "Point",
          "coordinates": [
            -71.916718,
            44.587564
          ]
        }
      },
      {
        "type": "Feature",
        "properties": {
          "name": "Kingdom Trails",
          "type": "trail"
        },
        "geometry": {
          "type": "Point",
          "coordinates": [
            -71.944984,
            44.587663
          ]
        }
      }
    ],
    "-124": [
      {
        "type": "Feature",
        "properties": {
          "name": "Black Rock",
          "type": "trail"
        },
        "geometry": {
          "type": "Point",
          "coordinates": [
            -123.499289,
            44.880832
          ]
        }
      }
    ],
    "-93": [
      {
        "type": "Feature",
        "properties": {
          "name": "Cottage Grove Bike Park",
          "type": "urban"
        },
        "geometry": {
          "type": "Point",
          "coordinates": [
            -92.966651,
            44.846607
          ]
        }
      }
    ],
    "-73": [
      {
        "type": "Feature",
        "properties": {
          "name": "Sugarbush",
          "type": "downhill"
        },
        "geometry": {
          "type": "Point",
          "coordinates": [
            -72.893038,
            44.137108
          ]
        }
      }
    ],
    "-71": [
      {
        "type": "Feature",
        "properties": {
          "name": "Sunday River",
          "type": "downhill"
        },
        "geometry": {
          "type": "Point",
          "coordinates": [
            -70.854607,
            44.472746
          ]
        }
      }
    ],
    "-117": [
      {
        "type": "Feature",
        "properties": {
          "name": "Tamarack Bike Park",
          "type": "downhill"
        },
        "geometry": {
          "type": "Point",
          "coordinates": [
            -116.124104,
            44.669782
          ]
        }
      }
    ],
    "-74": [
      {
        "type": "Feature",
        "properties": {
          "name": "Whiteface",
          "type": "downhill"
        },
        "geometry": {
          "type": "Point",
          "coordinates": [
            -73.861578,
            44.353681
          ]
        }
      }
    ]
  },
  "45": {
    "6": [
      {
        "type": "Feature",
        "properties": {
          "name": "Alpe dHuez",
          "type": "downhill"
        },
        "geometry": {
          "type": "Point",
          "coordinates": [
            6.070096,
            45.098034
          ]
        }
      },
      {
        "type": "Feature",
        "properties": {
          "name": "Les Arcs",
          "type": "downhill"
        },
        "geometry": {
          "type": "Point",
          "coordinates": [
            6.779294,
            45.572889
          ]
        }
      },
      {
        "type": "Feature",
        "properties": {
          "name": "Les Deux Alpes",
          "type": "downhill"
        },
        "geometry": {
          "type": "Point",
          "coordinates": [
            6.121801,
            45.007553
          ]
        }
      },
      {
        "type": "Feature",
        "properties": {
          "name": "Les Saisies",
          "type": "downhill"
        },
        "geometry": {
          "type": "Point",
          "coordinates": [
            6.541775,
            45.756431
          ]
        }
      },
      {
        "type": "Feature",
        "properties": {
          "name": "Méribel",
          "type": "downhill"
        },
        "geometry": {
          "type": "Point",
          "coordinates": [
            6.56436,
            45.397528
          ]
        }
      },
      {
        "type": "Feature",
        "properties": {
          "name": "Tignes-Val dIsere",
          "type": "downhill"
        },
        "geometry": {
          "type": "Point",
          "coordinates": [
            6.907637,
            45.469982
          ]
        }
      },
      {
        "type": "Feature",
        "properties": {
          "name": "Valloire",
          "type": "downhill"
        },
        "geometry": {
          "type": "Point",
          "coordinates": [
            6.428728,
            45.165485
          ]
        }
      },
      {
        "type": "Feature",
        "properties": {
          "name": "Bardonecchia",
          "type": "downhill"
        },
        "geometry": {
          "type": "Point",
          "coordinates": [
            6.704364,
            45.078097
          ]
        }
      },
      {
        "type": "Feature",
        "properties": {
          "name": "Sauze dOulx",
          "type": "downhill"
        },
        "geometry": {
          "type": "Point",
          "coordinates": [
            6.861167,
            45.029132
          ]
        }
      }
    ],
    "7": [
      {
        "type": "Feature",
        "properties": {
          "name": "Breuil-Cervinia Valtournenche",
          "type": "downhill"
        },
        "geometry": {
          "type": "Point",
          "coordinates": [
            7.633367,
            45.934159
          ]
        }
      },
      {
        "type": "Feature",
        "properties": {
          "name": "Pila",
          "type": "downhill"
        },
        "geometry": {
          "type": "Point",
          "coordinates": [
            7.309334,
            45.683337
          ]
        }
      }
    ],
    "10": [
      {
        "type": "Feature",
        "properties": {
          "name": "Torbole sul Garda",
          "type": "trail"
        },
        "geometry": {
          "type": "Point",
          "coordinates": [
            10.880585,
            45.856902
          ]
        }
      }
    ],
    "11": [
      {
        "type": "Feature",
        "properties": {
          "name": "Bikepark Lavarone",
          "type": "downhill"
        },
        "geometry": {
          "type": "Point",
          "coordinates": [
            11.263401,
            45.950347
          ]
        }
      },
      {
        "type": "Feature",
        "properties": {
          "name": "Malo BikePark Ride",
          "type": "urban"
        },
        "geometry": {
          "type": "Point",
          "coordinates": [
            11.406105,
            45.665495
          ]
        }
      }
    ],
    "14": [
      {
        "type": "Feature",
        "properties": {
          "name": "Javornik",
          "type": "downhill"
        },
        "geometry": {
          "type": "Point",
          "coordinates": [
            14.081104,
            45.901119
          ]
        }
      }
    ],
    "-73": [
      {
        "type": "Feature",
        "properties": {
          "name": "Bromont",
          "type": "downhill"
        },
        "geometry": {
          "type": "Point",
          "coordinates": [
            -72.637053,
            45.301335
          ]
        }
      }
    ],
    "-75": [
      {
        "type": "Feature",
        "properties": {
          "name": "Mont Saint Sauveur",
          "type": "downhill"
        },
        "geometry": {
          "type": "Point",
          "coordinates": [
            -74.135083,
            45.882549
          ]
        }
      }
    ],
    "-123": [
      {
        "type": "Feature",
        "properties": {
          "name": "Lumberyard",
          "type": "indoor"
        },
        "geometry": {
          "type": "Point",
          "coordinates": [
            -122.577914,
            45.541425
          ]
        }
      },
      {
        "type": "Feature",
        "properties": {
          "name": "Sandy Ridge",
          "type": "trail"
        },
        "geometry": {
          "type": "Point",
          "coordinates": [
            -122.036842,
            45.381967
          ]
        }
      }
    ],
    "-122": [
      {
        "type": "Feature",
        "properties": {
          "name": "Skibowl",
          "type": "downhill"
        },
        "geometry": {
          "type": "Point",
          "coordinates": [
            -121.773491,
            45.301363
          ]
        }
      }
    ]
  },
  "46": {
    "6": [
      {
        "type": "Feature",
        "properties": {
          "name": "Châtel",
          "type": "downhill"
        },
        "geometry": {
          "type": "Point",
          "coordinates": [
            6.843967,
            46.266884
          ]
        }
      },
      {
        "type": "Feature",
        "properties": {
          "name": "Les Gets",
          "type": "downhill"
        },
        "geometry": {
          "type": "Point",
          "coordinates": [
            6.66732,
            46.15314
          ]
        }
      },
      {
        "type": "Feature",
        "properties": {
          "name": "Metabief",
          "type": "downhill"
        },
        "geometry": {
          "type": "Point",
          "coordinates": [
            6.35705,
            46.767852
          ]
        }
      },
      {
        "type": "Feature",
        "properties": {
          "name": "Morzine",
          "type": "downhill"
        },
        "geometry": {
          "type": "Point",
          "coordinates": [
            6.700673,
            46.180038
          ]
        }
      },
      {
        "type": "Feature",
        "properties": {
          "name": "Champéry-Morgins",
          "type": "downhill"
        },
        "geometry": {
          "type": "Point",
          "coordinates": [
            6.853552,
            46.213972
          ]
        }
      }
    ],
    "7": [
      {
        "type": "Feature",
        "properties": {
          "name": "Crans Montana",
          "type": "downhill"
        },
        "geometry": {
          "type": "Point",
          "coordinates": [
            7.466773,
            46.308536
          ]
        }
      },
      {
        "type": "Feature",
        "properties": {
          "name": "Leysin",
          "type": "downhill"
        },
        "geometry": {
          "type": "Point",
          "coordinates": [
            7.012974,
            46.345376
          ]
        }
      },
      {
        "type": "Feature",
        "properties": {
          "name": "Saint-Luc",
          "type": "downhill"
        },
        "geometry": {
          "type": "Point",
          "coordinates": [
            7.602797,
            46.219693
          ]
        }
      },
      {
        "type": "Feature",
        "properties": {
          "name": "Verbier / La Tzoumaz",
          "type": "downhill"
        },
        "geometry": {
          "type": "Point",
          "coordinates": [
            7.234454,
            46.092906
          ]
        }
      },
      {
        "type": "Feature",
        "properties": {
          "name": "Wiriehorn",
          "type": "downhill"
        },
        "geometry": {
          "type": "Point",
          "coordinates": [
            7.533188,
            46.612629
          ]
        }
      }
    ],
    "8": [
      {
        "type": "Feature",
        "properties": {
          "name": "Bellwald",
          "type": "downhill"
        },
        "geometry": {
          "type": "Point",
          "coordinates": [
            8.15,
            46.433333
          ]
        }
      },
      {
        "type": "Feature",
        "properties": {
          "name": "Monte Tamaro",
          "type": "downhill"
        },
        "geometry": {
          "type": "Point",
          "coordinates": [
            8.920469,
            46.126973
          ]
        }
      },
      {
        "type": "Feature",
        "properties": {
          "name": "Nara",
          "type": "downhill"
        },
        "geometry": {
          "type": "Point",
          "coordinates": [
            8.900814,
            46.461098
          ]
        }
      }
    ],
    "9": [
      {
        "type": "Feature",
        "properties": {
          "name": "Alpen",
          "type": "downhill"
        },
        "geometry": {
          "type": "Point",
          "coordinates": [
            9.516221,
            46.829345
          ]
        }
      },
      {
        "type": "Feature",
        "properties": {
          "name": "Flims",
          "type": "downhill"
        },
        "geometry": {
          "type": "Point",
          "coordinates": [
            9.288168,
            46.836299
          ]
        }
      },
      {
        "type": "Feature",
        "properties": {
          "name": "Lenzerheide",
          "type": "downhill"
        },
        "geometry": {
          "type": "Point",
          "coordinates": [
            9.557635,
            46.727101
          ]
        }
      }
    ],
    "10": [
      {
        "type": "Feature",
        "properties": {
          "name": "Mottolino Bike Park Livigno",
          "type": "downhill"
        },
        "geometry": {
          "type": "Point",
          "coordinates": [
            10.141341,
            46.54509
          ]
        }
      }
    ],
    "11": [
      {
        "type": "Feature",
        "properties": {
          "name": "Cermis",
          "type": "downhill"
        },
        "geometry": {
          "type": "Point",
          "coordinates": [
            11.5025,
            46.242222
          ]
        }
      },
      {
        "type": "Feature",
        "properties": {
          "name": "Fassa",
          "type": "downhill"
        },
        "geometry": {
          "type": "Point",
          "coordinates": [
            11.74387,
            46.473453
          ]
        }
      },
      {
        "type": "Feature",
        "properties": {
          "name": "Kronplatz-Freeride",
          "type": "downhill"
        },
        "geometry": {
          "type": "Point",
          "coordinates": [
            11.96,
            46.738056
          ]
        }
      },
      {
        "type": "Feature",
        "properties": {
          "name": "Paganella",
          "type": "downhill"
        },
        "geometry": {
          "type": "Point",
          "coordinates": [
            11.05233,
            46.175814
          ]
        }
      },
      {
        "type": "Feature",
        "properties": {
          "name": "San Martino Bike Arena",
          "type": "downhill"
        },
        "geometry": {
          "type": "Point",
          "coordinates": [
            11.799556,
            46.255181
          ]
        }
      }
    ],
    "12": [
      {
        "type": "Feature",
        "properties": {
          "name": "Cortina",
          "type": "downhill"
        },
        "geometry": {
          "type": "Point",
          "coordinates": [
            12.13131,
            46.545755
          ]
        }
      }
    ],
    "13": [
      {
        "type": "Feature",
        "properties": {
          "name": "Kranjska Gora",
          "type": "downhill"
        },
        "geometry": {
          "type": "Point",
          "coordinates": [
            13.77162,
            46.487933
          ]
        }
      }
    ],
    "14": [
      {
        "type": "Feature",
        "properties": {
          "name": "Krvavec",
          "type": "downhill"
        },
        "geometry": {
          "type": "Point",
          "coordinates": [
            14.495937,
            46.284948
          ]
        }
      }
    ],
    "15": [
      {
        "type": "Feature",
        "properties": {
          "name": "Bike Park Pohorje",
          "type": "downhill"
        },
        "geometry": {
          "type": "Point",
          "coordinates": [
            15.633858,
            46.521816
          ]
        }
      }
    ],
    "-93": [
      {
        "type": "Feature",
        "properties": {
          "name": "Spirit Mountain ",
          "type": "downhill"
        },
        "geometry": {
          "type": "Point",
          "coordinates": [
            -92.216608,
            46.718548
          ]
        }
      }
    ]
  },
  "47": {
    "7": [
      {
        "type": "Feature",
        "properties": {
          "name": "Todtnau",
          "type": "downhill"
        },
        "geometry": {
          "type": "Point",
          "coordinates": [
            7.944574,
            47.829003
          ]
        }
      }
    ],
    "8": [
      {
        "type": "Feature",
        "properties": {
          "name": "Pfäffikon Indoor Bike Park",
          "type": "indoor"
        },
        "geometry": {
          "type": "Point",
          "coordinates": [
            8.767083,
            47.363544
          ]
        }
      }
    ],
    "9": [
      {
        "type": "Feature",
        "properties": {
          "name": "Brandnertal",
          "type": "downhill"
        },
        "geometry": {
          "type": "Point",
          "coordinates": [
            9.744378,
            47.110767
          ]
        }
      }
    ],
    "10": [
      {
        "type": "Feature",
        "properties": {
          "name": "Serfaus-Fiss-Ladis",
          "type": "downhill"
        },
        "geometry": {
          "type": "Point",
          "coordinates": [
            10.608598,
            47.053919
          ]
        }
      },
      {
        "type": "Feature",
        "properties": {
          "name": "Hindelang",
          "type": "downhill"
        },
        "geometry": {
          "type": "Point",
          "coordinates": [
            10.371356,
            47.506561
          ]
        }
      }
    ],
    "11": [
      {
        "type": "Feature",
        "properties": {
          "name": "Tirol",
          "type": "downhill"
        },
        "geometry": {
          "type": "Point",
          "coordinates": [
            11.460629,
            47.087131
          ]
        }
      },
      {
        "type": "Feature",
        "properties": {
          "name": "Lenggries",
          "type": "downhill"
        },
        "geometry": {
          "type": "Point",
          "coordinates": [
            11.550193,
            47.67556
          ]
        }
      }
    ],
    "12": [
      {
        "type": "Feature",
        "properties": {
          "name": "Leogang",
          "type": "downhill"
        },
        "geometry": {
          "type": "Point",
          "coordinates": [
            12.718814,
            47.439211
          ]
        }
      },
      {
        "type": "Feature",
        "properties": {
          "name": "Saalbach Hinterglemm",
          "type": "downhill"
        },
        "geometry": {
          "type": "Point",
          "coordinates": [
            12.63945,
            47.38974
          ]
        }
      },
      {
        "type": "Feature",
        "properties": {
          "name": "Samerberg",
          "type": "downhill"
        },
        "geometry": {
          "type": "Point",
          "coordinates": [
            12.236795,
            47.770772
          ]
        }
      }
    ],
    "13": [
      {
        "type": "Feature",
        "properties": {
          "name": "Planai-Schladming",
          "type": "downhill"
        },
        "geometry": {
          "type": "Point",
          "coordinates": [
            13.694372,
            47.391406
          ]
        }
      },
      {
        "type": "Feature",
        "properties": {
          "name": "Wagrain",
          "type": "downhill"
        },
        "geometry": {
          "type": "Point",
          "coordinates": [
            13.308992,
            47.333995
          ]
        }
      }
    ],
    "15": [
      {
        "type": "Feature",
        "properties": {
          "name": "Schöckl",
          "type": "downhill"
        },
        "geometry": {
          "type": "Point",
          "coordinates": [
            15.485891,
            47.185792
          ]
        }
      },
      {
        "type": "Feature",
        "properties": {
          "name": "Zau[:ber:]g Semmering",
          "type": "downhill"
        },
        "geometry": {
          "type": "Point",
          "coordinates": [
            15.830205,
            47.643562
          ]
        }
      }
    ],
    "-71": [
      {
        "type": "Feature",
        "properties": {
          "name": "Mont-Sainte-Anne",
          "type": "downhill"
        },
        "geometry": {
          "type": "Point",
          "coordinates": [
            -70.905375,
            47.074038
          ]
        }
      }
    ],
    "-67": [
      {
        "type": "Feature",
        "properties": {
          "name": "Sugarloaf",
          "type": "downhill"
        },
        "geometry": {
          "type": "Point",
          "coordinates": [
            -66.69508,
            47.982109
          ]
        }
      }
    ],
    "-122": [
      {
        "type": "Feature",
        "properties": {
          "name": "Duthie Hill",
          "type": "trail"
        },
        "geometry": {
          "type": "Point",
          "coordinates": [
            -121.976901,
            47.582794
          ]
        }
      },
      {
        "type": "Feature",
        "properties": {
          "name": "Stevens Pass",
          "type": "downhill"
        },
        "geometry": {
          "type": "Point",
          "coordinates": [
            -121.092167,
            47.744143
          ]
        }
      }
    ],
    "-123": [
      {
        "type": "Feature",
        "properties": {
          "name": "I-5 Colonnade",
          "type": "urban"
        },
        "geometry": {
          "type": "Point",
          "coordinates": [
            -122.323519,
            47.634096
          ]
        }
      }
    ],
    "-117": [
      {
        "type": "Feature",
        "properties": {
          "name": "Silver Mountain",
          "type": "downhill"
        },
        "geometry": {
          "type": "Point",
          "coordinates": [
            -116.133299,
            47.540648
          ]
        }
      }
    ]
  },
  "48": {
    "6": [
      {
        "type": "Feature",
        "properties": {
          "name": "La Bresse - Hohneck",
          "type": "downhill"
        },
        "geometry": {
          "type": "Point",
          "coordinates": [
            6.971411,
            48.037554
          ]
        }
      }
    ],
    "7": [
      {
        "type": "Feature",
        "properties": {
          "name": "Lac Blanc",
          "type": "downhill"
        },
        "geometry": {
          "type": "Point",
          "coordinates": [
            7.077427,
            48.145301
          ]
        }
      }
    ],
    "8": [
      {
        "type": "Feature",
        "properties": {
          "name": "Bad Wildbad",
          "type": "downhill"
        },
        "geometry": {
          "type": "Point",
          "coordinates": [
            8.550746,
            48.749297
          ]
        }
      }
    ],
    "9": [
      {
        "type": "Feature",
        "properties": {
          "name": "Albstadt",
          "type": "downhill"
        },
        "geometry": {
          "type": "Point",
          "coordinates": [
            9.030697,
            48.253998
          ]
        }
      }
    ],
    "13": [
      {
        "type": "Feature",
        "properties": {
          "name": "Geisskopf",
          "type": "downhill"
        },
        "geometry": {
          "type": "Point",
          "coordinates": [
            13.080769,
            48.9181
          ]
        }
      }
    ],
    "17": [
      {
        "type": "Feature",
        "properties": {
          "name": "Kálnica",
          "type": "downhill"
        },
        "geometry": {
          "type": "Point",
          "coordinates": [
            17.931265,
            48.762691
          ]
        }
      }
    ],
    "19": [
      {
        "type": "Feature",
        "properties": {
          "name": "Bike World Jasná",
          "type": "downhill"
        },
        "geometry": {
          "type": "Point",
          "coordinates": [
            19.598248,
            48.972182
          ]
        }
      }
    ],
    "24": [
      {
        "type": "Feature",
        "properties": {
          "name": "Bukovel Bike Park",
          "type": "downhill"
        },
        "geometry": {
          "type": "Point",
          "coordinates": [
            24.392222,
            48.360278
          ]
        }
      }
    ],
    "-115": [
      {
        "type": "Feature",
        "properties": {
          "name": "Whitefish",
          "type": "downhill"
        },
        "geometry": {
          "type": "Point",
          "coordinates": [
            -114.337633,
            48.411076
          ]
        }
      }
    ]
  },
  "49": {
    "8": [
      {
        "type": "Feature",
        "properties": {
          "name": "Beerfelden",
          "type": "downhill"
        },
        "geometry": {
          "type": "Point",
          "coordinates": [
            8.98836,
            49.563033
          ]
        }
      }
    ],
    "11": [
      {
        "type": "Feature",
        "properties": {
          "name": "Osternohe ",
          "type": "downhill"
        },
        "geometry": {
          "type": "Point",
          "coordinates": [
            11.37734,
            49.58701
          ]
        }
      }
    ],
    "13": [
      {
        "type": "Feature",
        "properties": {
          "name": "Špičák Bike Park",
          "type": "downhill"
        },
        "geometry": {
          "type": "Point",
          "coordinates": [
            13.217239,
            49.165543
          ]
        }
      }
    ],
    "18": [
      {
        "type": "Feature",
        "properties": {
          "name": "Palenica",
          "type": "downhill"
        },
        "geometry": {
          "type": "Point",
          "coordinates": [
            18.845769,
            49.703443
          ]
        }
      },
      {
        "type": "Feature",
        "properties": {
          "name": "Stożek w Wiśle",
          "type": "downhill"
        },
        "geometry": {
          "type": "Point",
          "coordinates": [
            18.835373,
            49.604036
          ]
        }
      }
    ],
    "20": [
      {
        "type": "Feature",
        "properties": {
          "name": "Bachledova",
          "type": "downhill"
        },
        "geometry": {
          "type": "Point",
          "coordinates": [
            20.309931,
            49.271854
          ]
        }
      }
    ],
    "-124": [
      {
        "type": "Feature",
        "properties": {
          "name": "Coast Gravity Park",
          "type": "downhill"
        },
        "geometry": {
          "type": "Point",
          "coordinates": [
            -123.75456,
            49.474174
          ]
        }
      }
    ],
    "-116": [
      {
        "type": "Feature",
        "properties": {
          "name": "Fernie",
          "type": "downhill"
        },
        "geometry": {
          "type": "Point",
          "coordinates": [
            -115.085778,
            49.463885
          ]
        }
      }
    ],
    "-126": [
      {
        "type": "Feature",
        "properties": {
          "name": "Mount Washington",
          "type": "downhill"
        },
        "geometry": {
          "type": "Point",
          "coordinates": [
            -125.305252,
            49.738238
          ]
        }
      }
    ]
  },
  "50": {
    "6": [
      {
        "type": "Feature",
        "properties": {
          "name": "Ferme Libert",
          "type": "downhill"
        },
        "geometry": {
          "type": "Point",
          "coordinates": [
            6.02893,
            50.4465
          ]
        }
      }
    ],
    "17": [
      {
        "type": "Feature",
        "properties": {
          "name": "Rychleby Trails",
          "type": "trail"
        },
        "geometry": {
          "type": "Point",
          "coordinates": [
            17.154827,
            50.309822
          ]
        }
      }
    ],
    "-117": [
      {
        "type": "Feature",
        "properties": {
          "name": "Panorama",
          "type": "downhill"
        },
        "geometry": {
          "type": "Point",
          "coordinates": [
            -116.239471,
            50.458925
          ]
        }
      }
    ],
    "-120": [
      {
        "type": "Feature",
        "properties": {
          "name": "Silver Star Bike Park",
          "type": "downhill"
        },
        "geometry": {
          "type": "Point",
          "coordinates": [
            -119.060383,
            50.357947
          ]
        }
      },
      {
        "type": "Feature",
        "properties": {
          "name": "Sun Peaks",
          "type": "downhill"
        },
        "geometry": {
          "type": "Point",
          "coordinates": [
            -119.886589,
            50.884084
          ]
        }
      }
    ],
    "-123": [
      {
        "type": "Feature",
        "properties": {
          "name": "Whistler Air Dome",
          "type": "indoor"
        },
        "geometry": {
          "type": "Point",
          "coordinates": [
            -122.94538,
            50.10965
          ]
        }
      },
      {
        "type": "Feature",
        "properties": {
          "name": "Whistler Bike Park",
          "type": "downhill"
        },
        "geometry": {
          "type": "Point",
          "coordinates": [
            -122.953491,
            50.112763
          ]
        }
      }
    ],
    "-2": [
      {
        "type": "Feature",
        "properties": {
          "name": "Southampton",
          "type": "urban"
        },
        "geometry": {
          "type": "Point",
          "coordinates": [
            -1.42065,
            50.939934
          ]
        }
      }
    ]
  },
  "51": {
    "8": [
      {
        "type": "Feature",
        "properties": {
          "name": "Warsteiner",
          "type": "downhill"
        },
        "geometry": {
          "type": "Point",
          "coordinates": [
            8.433363,
            51.439795
          ]
        }
      },
      {
        "type": "Feature",
        "properties": {
          "name": "Winterberg",
          "type": "downhill"
        },
        "geometry": {
          "type": "Point",
          "coordinates": [
            8.502302,
            51.183809
          ]
        }
      }
    ],
    "10": [
      {
        "type": "Feature",
        "properties": {
          "name": "Braunlage",
          "type": "downhill"
        },
        "geometry": {
          "type": "Point",
          "coordinates": [
            10.61305,
            51.73176
          ]
        }
      },
      {
        "type": "Feature",
        "properties": {
          "name": "Hahnenklee",
          "type": "downhill"
        },
        "geometry": {
          "type": "Point",
          "coordinates": [
            10.340988,
            51.859242
          ]
        }
      },
      {
        "type": "Feature",
        "properties": {
          "name": "Schulenberg",
          "type": "downhill"
        },
        "geometry": {
          "type": "Point",
          "coordinates": [
            10.443964,
            51.840696
          ]
        }
      }
    ],
    "-115": [
      {
        "type": "Feature",
        "properties": {
          "name": "Canada Olympic Park",
          "type": "urban"
        },
        "geometry": {
          "type": "Point",
          "coordinates": [
            -114.221448,
            51.082093
          ]
        }
      }
    ],
    "-118": [
      {
        "type": "Feature",
        "properties": {
          "name": "Kicking Horse",
          "type": "downhill"
        },
        "geometry": {
          "type": "Point",
          "coordinates": [
            -117.045808,
            51.297564
          ]
        }
      }
    ],
    "-4": [
      {
        "type": "Feature",
        "properties": {
          "name": "Afan Forest",
          "type": "trail"
        },
        "geometry": {
          "type": "Point",
          "coordinates": [
            -3.702399,
            51.641374
          ]
        }
      },
      {
        "type": "Feature",
        "properties": {
          "name": "BikePark Wales",
          "type": "downhill"
        },
        "geometry": {
          "type": "Point",
          "coordinates": [
            -3.376215,
            51.721501
          ]
        }
      },
      {
        "type": "Feature",
        "properties": {
          "name": "Cwmcarn",
          "type": "trail"
        },
        "geometry": {
          "type": "Point",
          "coordinates": [
            -3.116362,
            51.636511
          ]
        }
      }
    ],
    "-1": [
      {
        "type": "Feature",
        "properties": {
          "name": "Aston Hill",
          "type": "trail"
        },
        "geometry": {
          "type": "Point",
          "coordinates": [
            -0.71,
            51.7827
          ]
        }
      }
    ],
    "-2": [
      {
        "type": "Feature",
        "properties": {
          "name": "Tidworth Freeride",
          "type": "trail"
        },
        "geometry": {
          "type": "Point",
          "coordinates": [
            -1.665502,
            51.220873
          ]
        }
      }
    ]
  },
  "52": {
    "-1": [
      {
        "type": "Feature",
        "properties": {
          "name": "Chicksands",
          "type": "downhill"
        },
        "geometry": {
          "type": "Point",
          "coordinates": [
            -0.37405,
            52.061568
          ]
        }
      }
    ],
    "-4": [
      {
        "type": "Feature",
        "properties": {
          "name": "Coed-y-Brenin",
          "type": "trail"
        },
        "geometry": {
          "type": "Point",
          "coordinates": [
            -3.896713,
            52.824107
          ]
        }
      },
      {
        "type": "Feature",
        "properties": {
          "name": "Revolution - Llangynog",
          "type": "downhill"
        },
        "geometry": {
          "type": "Point",
          "coordinates": [
            -3.408122,
            52.821243
          ]
        }
      }
    ]
  },
  "53": {
    "-118": [
      {
        "type": "Feature",
        "properties": {
          "name": "Hinton",
          "type": "trail"
        },
        "geometry": {
          "type": "Point",
          "coordinates": [
            -117.576027,
            53.393936
          ]
        }
      }
    ],
    "-4": [
      {
        "type": "Feature",
        "properties": {
          "name": "Antur Stiniog",
          "type": "downhill"
        },
        "geometry": {
          "type": "Point",
          "coordinates": [
            -3.941467,
            53.007078
          ]
        }
      },
      {
        "type": "Feature",
        "properties": {
          "name": "Coed Llandegla",
          "type": "trail"
        },
        "geometry": {
          "type": "Point",
          "coordinates": [
            -3.136253,
            53.061953
          ]
        }
      }
    ],
    "-3": [
      {
        "type": "Feature",
        "properties": {
          "name": "Dirt Factory",
          "type": "indoor"
        },
        "geometry": {
          "type": "Point",
          "coordinates": [
            -2.248485,
            53.479324
          ]
        }
      }
    ]
  },
  "54": {
    "-4": [
      {
        "type": "Feature",
        "properties": {
          "name": "7-Stanes: Dalbeattie",
          "type": "trail"
        },
        "geometry": {
          "type": "Point",
          "coordinates": [
            -3.823095,
            54.933354
          ]
        }
      }
    ],
    "-5": [
      {
        "type": "Feature",
        "properties": {
          "name": "7-Stanes: Kirroughtree",
          "type": "trail"
        },
        "geometry": {
          "type": "Point",
          "coordinates": [
            -4.416161,
            54.940949
          ]
        }
      }
    ]
  },
  "55": {
    "-4": [
      {
        "type": "Feature",
        "properties": {
          "name": "7-Stanes: Ae",
          "type": "trail"
        },
        "geometry": {
          "type": "Point",
          "coordinates": [
            -3.599045,
            55.186487
          ]
        }
      },
      {
        "type": "Feature",
        "properties": {
          "name": "7-Stanes: Glentress & Innerleithen",
          "type": "trail"
        },
        "geometry": {
          "type": "Point",
          "coordinates": [
            -3.104324,
            55.630516
          ]
        }
      },
      {
        "type": "Feature",
        "properties": {
          "name": "7-Stanes: Mabie",
          "type": "trail"
        },
        "geometry": {
          "type": "Point",
          "coordinates": [
            -3.638391,
            55.023087
          ]
        }
      }
    ],
    "-5": [
      {
        "type": "Feature",
        "properties": {
          "name": "7-Stanes: Glentrool",
          "type": "trail"
        },
        "geometry": {
          "type": "Point",
          "coordinates": [
            -4.520530701,
            55.08033255
          ]
        }
      }
    ],
    "-3": [
      {
        "type": "Feature",
        "properties": {
          "name": "7-Stanes: Newcastleton",
          "type": "trail"
        },
        "geometry": {
          "type": "Point",
          "coordinates": [
            -2.813222,
            55.179318
          ]
        }
      }
    ]
  },
  "56": {
    "13": [
      {
        "type": "Feature",
        "properties": {
          "name": "Vallasen Bike Park",
          "type": "downhill"
        },
        "geometry": {
          "type": "Point",
          "coordinates": [
            13.109253,
            56.384731
          ]
        }
      }
    ],
    "-6": [
      {
        "type": "Feature",
        "properties": {
          "name": "Nevis Range - Fort William",
          "type": "downhill"
        },
        "geometry": {
          "type": "Point",
          "coordinates": [
            -5.000324,
            56.851694
          ]
        }
      }
    ]
  },
  "57": {
    "-4": [
      {
        "type": "Feature",
        "properties": {
          "name": "Glenlivet",
          "type": "trail"
        },
        "geometry": {
          "type": "Point",
          "coordinates": [
            -3.412244,
            57.282769
          ]
        }
      }
    ]
  },
  "59": {
    "10": [
      {
        "type": "Feature",
        "properties": {
          "name": "Drammen",
          "type": "downhill"
        },
        "geometry": {
          "type": "Point",
          "coordinates": [
            10.123659,
            59.763108
          ]
        }
      }
    ],
    "13": [
      {
        "type": "Feature",
        "properties": {
          "name": "Bryngfjorden",
          "type": "downhill"
        },
        "geometry": {
          "type": "Point",
          "coordinates": [
            13.458982,
            59.424869
          ]
        }
      }
    ],
    "18": [
      {
        "type": "Feature",
        "properties": {
          "name": "Hammarby Backen",
          "type": "downhill"
        },
        "geometry": {
          "type": "Point",
          "coordinates": [
            18.109006,
            59.301567
          ]
        }
      }
    ]
  },
  "60": {
    "8": [
      {
        "type": "Feature",
        "properties": {
          "name": "Geilo",
          "type": "downhill"
        },
        "geometry": {
          "type": "Point",
          "coordinates": [
            8.198368,
            60.52143
          ]
        }
      }
    ],
    "10": [
      {
        "type": "Feature",
        "properties": {
          "name": "Traktor",
          "type": "trail"
        },
        "geometry": {
          "type": "Point",
          "coordinates": [
            10.339034,
            60.580246
          ]
        }
      }
    ],
    "14": [
      {
        "type": "Feature",
        "properties": {
          "name": "Gesunda",
          "type": "downhill"
        },
        "geometry": {
          "type": "Point",
          "coordinates": [
            14.519685,
            60.876793
          ]
        }
      }
    ],
    "24": [
      {
        "type": "Feature",
        "properties": {
          "name": "Calpis",
          "type": "downhill"
        },
        "geometry": {
          "type": "Point",
          "coordinates": [
            24.595798,
            60.927499
          ]
        }
      }
    ],
    "-150": [
      {
        "type": "Feature",
        "properties": {
          "name": "Alyeska",
          "type": "downhill"
        },
        "geometry": {
          "type": "Point",
          "coordinates": [
            -149.108634,
            60.959944
          ]
        }
      }
    ]
  },
  "61": {
    "10": [
      {
        "type": "Feature",
        "properties": {
          "name": "Hafjell",
          "type": "downhill"
        },
        "geometry": {
          "type": "Point",
          "coordinates": [
            10.475121,
            61.238036
          ]
        }
      }
    ],
    "13": [
      {
        "type": "Feature",
        "properties": {
          "name": "Sälen",
          "type": "downhill"
        },
        "geometry": {
          "type": "Point",
          "coordinates": [
            13.268506,
            61.155704
          ]
        }
      }
    ],
    "16": [
      {
        "type": "Feature",
        "properties": {
          "name": "Järvsö",
          "type": "downhill"
        },
        "geometry": {
          "type": "Point",
          "coordinates": [
            16.159816,
            61.712272
          ]
        }
      }
    ],
    "24": [
      {
        "type": "Feature",
        "properties": {
          "name": "Sappee",
          "type": "downhill"
        },
        "geometry": {
          "type": "Point",
          "coordinates": [
            24.706973,
            61.257053
          ]
        }
      }
    ]
  },
  "62": {
    "13": [
      {
        "type": "Feature",
        "properties": {
          "name": "Lofsdalen",
          "type": "downhill"
        },
        "geometry": {
          "type": "Point",
          "coordinates": [
            13.294315,
            62.113599
          ]
        }
      }
    ],
    "25": [
      {
        "type": "Feature",
        "properties": {
          "name": "Laajavuori",
          "type": "downhill"
        },
        "geometry": {
          "type": "Point",
          "coordinates": [
            25.696696,
            62.260339
          ]
        }
      }
    ]
  },
  "63": {
    "13": [
      {
        "type": "Feature",
        "properties": {
          "name": "Åre",
          "type": "downhill"
        },
        "geometry": {
          "type": "Point",
          "coordinates": [
            13.084501,
            63.399164
          ]
        }
      }
    ]
  },
  "66": {
    "25": [
      {
        "type": "Feature",
        "properties": {
          "name": "Ounasvaara",
          "type": "downhill"
        },
        "geometry": {
          "type": "Point",
          "coordinates": [
            25.8,
            66.5
          ]
        }
      }
    ]
  },
  "67": {
    "24": [
      {
        "type": "Feature",
        "properties": {
          "name": "Levi",
          "type": "downhill"
        },
        "geometry": {
          "type": "Point",
          "coordinates": [
            24.810101,
            67.802358
          ]
        }
      }
    ]
  },
  "-42": {
    "174": [
      {
        "type": "Feature",
        "properties": {
          "name": "Makara Peak",
          "type": "trail"
        },
        "geometry": {
          "type": "Point",
          "coordinates": [
            174.704933,
            -41.27084
          ]
        }
      }
    ],
    "-72": [
      {
        "type": "Feature",
        "properties": {
          "name": "Catedral Alta Patagonia",
          "type": "downhill"
        },
        "geometry": {
          "type": "Point",
          "coordinates": [
            -71.443512,
            -41.167631
          ]
        }
      }
    ]
  },
  "-34": {
    "151": [
      {
        "type": "Feature",
        "properties": {
          "name": "Awaba",
          "type": "trail"
        },
        "geometry": {
          "type": "Point",
          "coordinates": [
            151.455288,
            -33.026152
          ]
        }
      }
    ],
    "-71": [
      {
        "type": "Feature",
        "properties": {
          "name": "La Parva",
          "type": "downhill"
        },
        "geometry": {
          "type": "Point",
          "coordinates": [
            -70.291808,
            -33.340261
          ]
        }
      }
    ]
  },
  "-35": {
    "150": [
      {
        "type": "Feature",
        "properties": {
          "name": "Green Valleys ",
          "type": "downhill"
        },
        "geometry": {
          "type": "Point",
          "coordinates": [
            150.699719628459,
            -34.5840164227733
          ]
        }
      }
    ]
  },
  "-28": {
    "151": [
      {
        "type": "Feature",
        "properties": {
          "name": "Jubilee Park",
          "type": "trail"
        },
        "geometry": {
          "type": "Point",
          "coordinates": [
            151.984622,
            -27.541748
          ]
        }
      }
    ]
  },
  "-38": {
    "146": [
      {
        "type": "Feature",
        "properties": {
          "name": "Mount Buller",
          "type": "downhill"
        },
        "geometry": {
          "type": "Point",
          "coordinates": [
            146.449411,
            -37.146357
          ]
        }
      }
    ],
    "174": [
      {
        "type": "Feature",
        "properties": {
          "name": "Franklin/Puni Mountain Bike Park",
          "type": "trail"
        },
        "geometry": {
          "type": "Point",
          "coordinates": [
            174.871101,
            -37.232789
          ]
        }
      }
    ]
  },
  "-36": {
    "149": [
      {
        "type": "Feature",
        "properties": {
          "name": "Stromlo",
          "type": "trail"
        },
        "geometry": {
          "type": "Point",
          "coordinates": [
            149.01804,
            -35.321918
          ]
        }
      }
    ]
  },
  "-37": {
    "148": [
      {
        "type": "Feature",
        "properties": {
          "name": "Thredbo",
          "type": "downhill"
        },
        "geometry": {
          "type": "Point",
          "coordinates": [
            148.305556,
            -36.506586
          ]
        }
      }
    ],
    "174": [
      {
        "type": "Feature",
        "properties": {
          "name": "Woodhill",
          "type": "trail"
        },
        "geometry": {
          "type": "Point",
          "coordinates": [
            174.432163,
            -36.746794
          ]
        }
      }
    ],
    "175": [
      {
        "type": "Feature",
        "properties": {
          "name": "Fourforty",
          "type": "downhill"
        },
        "geometry": {
          "type": "Point",
          "coordinates": [
            175.200262,
            -36.987339
          ]
        }
      }
    ],
    "-72": [
      {
        "type": "Feature",
        "properties": {
          "name": "Nevados",
          "type": "downhill"
        },
        "geometry": {
          "type": "Point",
          "coordinates": [
            -71.398773,
            -36.8486
          ]
        }
      }
    ]
  },
  "-23": {
    "-46": [
      {
        "type": "Feature",
        "properties": {
          "name": "Zoom Bike Park",
          "type": "trail"
        },
        "geometry": {
          "type": "Point",
          "coordinates": [
            -45.581821,
            -22.708776
          ]
        }
      }
    ]
  },
  "-9": {
    "115": [
      {
        "type": "Feature",
        "properties": {
          "name": "Bali Bike Park",
          "type": "downhill"
        },
        "geometry": {
          "type": "Point",
          "coordinates": [
            115.130519,
            -8.250981
          ]
        }
      }
    ]
  },
  "-40": {
    "176": [
      {
        "type": "Feature",
        "properties": {
          "name": "Pan Pac Eskdale MTB Park",
          "type": "trail"
        },
        "geometry": {
          "type": "Point",
          "coordinates": [
            176.870785,
            -39.385963
          ]
        }
      }
    ]
  },
  "-46": {
    "168": [
      {
        "type": "Feature",
        "properties": {
          "name": "Queenstown",
          "type": "downhill"
        },
        "geometry": {
          "type": "Point",
          "coordinates": [
            168.656123,
            -45.028418
          ]
        }
      },
      {
        "type": "Feature",
        "properties": {
          "name": "Rabbit Ridge",
          "type": "trail"
        },
        "geometry": {
          "type": "Point",
          "coordinates": [
            168.982299,
            -45.038298
          ]
        }
      }
    ]
  },
  "-39": {
    "176": [
      {
        "type": "Feature",
        "properties": {
          "name": "Rotorua",
          "type": "downhill"
        },
        "geometry": {
          "type": "Point",
          "coordinates": [
            176.221853,
            -38.11063
          ]
        }
      },
      {
        "type": "Feature",
        "properties": {
          "name": "Rotorua",
          "type": "trail"
        },
        "geometry": {
          "type": "Point",
          "coordinates": [
            176.269573,
            -38.185446
          ]
        }
      }
    ]
  },
  "-30": {
    "30": [
      {
        "type": "Feature",
        "properties": {
          "name": "Cascades",
          "type": "trail"
        },
        "geometry": {
          "type": "Point",
          "coordinates": [
            30.354856,
            -29.571516
          ]
        }
      },
      {
        "type": "Feature",
        "properties": {
          "name": "Giba Gorge",
          "type": "trail"
        },
        "geometry": {
          "type": "Point",
          "coordinates": [
            30.781181,
            -29.827175
          ]
        }
      }
    ]
  },
  "-27": {
    "28": [
      {
        "type": "Feature",
        "properties": {
          "name": "PwC Cycle Park",
          "type": "trail"
        },
        "geometry": {
          "type": "Point",
          "coordinates": [
            28.02639,
            -26.03893
          ]
        }
      }
    ]
  }
}