{
  "8": {
    "-72": [
      {
        "type": "Feature",
        "properties": {
          "name": "Pico Espejo",
          "wikipedia": "https://en.wikipedia.org/wiki/Pico_Espejo"
        },
        "geometry": {
          "type": "Point",
          "coordinates": [
            -71.06361111,
            8.52916667
          ]
        }
      }
    ]
  },
  "27": {
    "88": [
      {
        "type": "Feature",
        "properties": {
          "name": "Lachung",
          "wikipedia": "https://en.wikipedia.org/wiki/Lachung"
        },
        "geometry": {
          "type": "Point",
          "coordinates": [
            88.746,
            27.69
          ]
        }
      }
    ],
    "91": [
      {
        "type": "Feature",
        "properties": {
          "name": "Tawang",
          "wikipedia": "https://en.wikipedia.org/wiki/Tawang"
        },
        "geometry": {
          "type": "Point",
          "coordinates": [
            91.86527778,
            27.58833333
          ]
        }
      }
    ]
  },
  "30": {
    "77": [
      {
        "type": "Feature",
        "properties": {
          "name": "Chakrata",
          "wikipedia": "https://en.wikipedia.org/wiki/Chakrata"
        },
        "geometry": {
          "type": "Point",
          "coordinates": [
            77.869,
            30.702
          ]
        }
      }
    ],
    "79": [
      {
        "type": "Feature",
        "properties": {
          "name": "Auli",
          "wikipedia": "https://en.wikipedia.org/wiki/Auli"
        },
        "geometry": {
          "type": "Point",
          "coordinates": [
            79.57026,
            30.52892
          ]
        }
      }
    ]
  },
  "31": {
    "77": [
      {
        "type": "Feature",
        "properties": {
          "name": "Kufri, India",
          "wikipedia": "https://en.wikipedia.org/wiki/Kufri,_India"
        },
        "geometry": {
          "type": "Point",
          "coordinates": [
            77.25,
            31.1
          ]
        }
      }
    ]
  },
  "32": {
    "77": [
      {
        "type": "Feature",
        "properties": {
          "name": "Manali, Himachal Pradesh",
          "wikipedia": "https://en.wikipedia.org/wiki/Manali,_Himachal_Pradesh"
        },
        "geometry": {
          "type": "Point",
          "coordinates": [
            77.17,
            32.27
          ]
        }
      }
    ],
    "-111": [
      {
        "type": "Feature",
        "properties": {
          "name": "Mount Lemmon Ski Valley",
          "wikipedia": "https://en.wikipedia.org/wiki/Mount_Lemmon_Ski_Valley"
        },
        "geometry": {
          "type": "Point",
          "coordinates": [
            -110.78388889,
            32.45222222
          ]
        }
      }
    ]
  },
  "33": {
    "35": [
      {
        "type": "Feature",
        "properties": {
          "name": "Mount Hermon ski resort",
          "wikipedia": "https://en.wikipedia.org/wiki/Mount_Hermon_ski_resort"
        },
        "geometry": {
          "type": "Point",
          "coordinates": [
            35.7725,
            33.30805556
          ]
        }
      }
    ],
    "-6": [
      {
        "type": "Feature",
        "properties": {
          "name": "Ifrane",
          "wikipedia": "https://en.wikipedia.org/wiki/Ifrane"
        },
        "geometry": {
          "type": "Point",
          "coordinates": [
            -5.11666667,
            33.53333333
          ]
        }
      },
      {
        "type": "Feature",
        "properties": {
          "name": "Mischliffen",
          "wikipedia": "https://en.wikipedia.org/wiki/Mischliffen"
        },
        "geometry": {
          "type": "Point",
          "coordinates": [
            -5.1076,
            33.53468056
          ]
        }
      }
    ],
    "-110": [
      {
        "type": "Feature",
        "properties": {
          "name": "Sunrise Park Resort",
          "wikipedia": "https://en.wikipedia.org/wiki/Sunrise_Park_Resort"
        },
        "geometry": {
          "type": "Point",
          "coordinates": [
            -109.56472222,
            33.97333333
          ]
        }
      }
    ],
    "-106": [
      {
        "type": "Feature",
        "properties": {
          "name": "Ski Apache",
          "wikipedia": "https://en.wikipedia.org/wiki/Ski_Apache"
        },
        "geometry": {
          "type": "Point",
          "coordinates": [
            -105.79916667,
            33.39722222
          ]
        }
      }
    ]
  },
  "34": {
    "32": [
      {
        "type": "Feature",
        "properties": {
          "name": "Mount Olympus (Cyprus)",
          "wikipedia": "https://en.wikipedia.org/wiki/Mount_Olympus_(Cyprus)"
        },
        "geometry": {
          "type": "Point",
          "coordinates": [
            32.86333333,
            34.93638889
          ]
        }
      }
    ],
    "35": [
      {
        "type": "Feature",
        "properties": {
          "name": "Mzaar Kfardebian",
          "wikipedia": "https://en.wikipedia.org/wiki/Mzaar_Kfardebian"
        },
        "geometry": {
          "type": "Point",
          "coordinates": [
            35.82482778,
            34.01108333
          ]
        }
      },
      {
        "type": "Feature",
        "properties": {
          "name": "Laqlouq",
          "wikipedia": "https://en.wikipedia.org/wiki/Laqlouq"
        },
        "geometry": {
          "type": "Point",
          "coordinates": [
            35.87222222,
            34.13861111
          ]
        }
      }
    ],
    "73": [
      {
        "type": "Feature",
        "properties": {
          "name": "Nathia Gali",
          "wikipedia": "https://en.wikipedia.org/wiki/Nathia_Gali"
        },
        "geometry": {
          "type": "Point",
          "coordinates": [
            73.39222222,
            34.06805556
          ]
        }
      }
    ],
    "74": [
      {
        "type": "Feature",
        "properties": {
          "name": "Gulmarg",
          "wikipedia": "https://en.wikipedia.org/wiki/Gulmarg"
        },
        "geometry": {
          "type": "Point",
          "coordinates": [
            74.38,
            34.05
          ]
        }
      },
      {
        "type": "Feature",
        "properties": {
          "name": "Arang Kel",
          "wikipedia": "https://en.wikipedia.org/wiki/Arang_Kel"
        },
        "geometry": {
          "type": "Point",
          "coordinates": [
            74.346,
            34.8063
          ]
        }
      }
    ],
    "75": [
      {
        "type": "Feature",
        "properties": {
          "name": "Pahalgam",
          "wikipedia": "https://en.wikipedia.org/wiki/Pahalgam"
        },
        "geometry": {
          "type": "Point",
          "coordinates": [
            75.19,
            34.01
          ]
        }
      }
    ],
    "-117": [
      {
        "type": "Feature",
        "properties": {
          "name": "Bear Mountain (ski area)",
          "wikipedia": "https://en.wikipedia.org/wiki/Bear_Mountain_(ski_area)"
        },
        "geometry": {
          "type": "Point",
          "coordinates": [
            -116.8602,
            34.2267
          ]
        }
      },
      {
        "type": "Feature",
        "properties": {
          "name": "Snow Summit",
          "wikipedia": "https://en.wikipedia.org/wiki/Snow_Summit"
        },
        "geometry": {
          "type": "Point",
          "coordinates": [
            -116.8911,
            34.2286
          ]
        }
      }
    ],
    "-118": [
      {
        "type": "Feature",
        "properties": {
          "name": "Kratka Ridge",
          "wikipedia": "https://en.wikipedia.org/wiki/Kratka_Ridge"
        },
        "geometry": {
          "type": "Point",
          "coordinates": [
            -117.89716,
            34.35159
          ]
        }
      },
      {
        "type": "Feature",
        "properties": {
          "name": "Mount Baldy Ski Lifts",
          "wikipedia": "https://en.wikipedia.org/wiki/Mount_Baldy_Ski_Lifts"
        },
        "geometry": {
          "type": "Point",
          "coordinates": [
            -117.62,
            34.27
          ]
        }
      },
      {
        "type": "Feature",
        "properties": {
          "name": "Mount Waterman",
          "wikipedia": "https://en.wikipedia.org/wiki/Mount_Waterman"
        },
        "geometry": {
          "type": "Point",
          "coordinates": [
            -117.928611,
            34.349722
          ]
        }
      },
      {
        "type": "Feature",
        "properties": {
          "name": "Mountain High",
          "wikipedia": "https://en.wikipedia.org/wiki/Mountain_High"
        },
        "geometry": {
          "type": "Point",
          "coordinates": [
            -117.69323,
            34.37472
          ]
        }
      },
      {
        "type": "Feature",
        "properties": {
          "name": "Snow Valley Mountain Resort",
          "wikipedia": "https://en.wikipedia.org/wiki/Snow_Valley_Mountain_Resort"
        },
        "geometry": {
          "type": "Point",
          "coordinates": [
            -117.037423,
            34.223375
          ]
        }
      }
    ]
  },
  "35": {
    "74": [
      {
        "type": "Feature",
        "properties": {
          "name": "Fairy Meadows",
          "wikipedia": "https://en.wikipedia.org/wiki/Fairy_Meadows"
        },
        "geometry": {
          "type": "Point",
          "coordinates": [
            74.58416111,
            35.38685278
          ]
        }
      }
    ],
    "75": [
      {
        "type": "Feature",
        "properties": {
          "name": "Astore Valley",
          "wikipedia": "https://en.wikipedia.org/wiki/Astore_Valley"
        },
        "geometry": {
          "type": "Point",
          "coordinates": [
            75.11025,
            35.03897222
          ]
        }
      }
    ],
    "-84": [
      {
        "type": "Feature",
        "properties": {
          "name": "Cataloochee Ski Area",
          "wikipedia": "https://en.wikipedia.org/wiki/Cataloochee_Ski_Area"
        },
        "geometry": {
          "type": "Point",
          "coordinates": [
            -83.09,
            35.563
          ]
        }
      },
      {
        "type": "Feature",
        "properties": {
          "name": "Ober Gatlinburg",
          "wikipedia": "https://en.wikipedia.org/wiki/Ober_Gatlinburg"
        },
        "geometry": {
          "type": "Point",
          "coordinates": [
            -83.55777778,
            35.70305556
          ]
        }
      }
    ],
    "-112": [
      {
        "type": "Feature",
        "properties": {
          "name": "Arizona Snowbowl",
          "wikipedia": "https://en.wikipedia.org/wiki/Arizona_Snowbowl"
        },
        "geometry": {
          "type": "Point",
          "coordinates": [
            -111.705,
            35.33
          ]
        }
      }
    ],
    "-107": [
      {
        "type": "Feature",
        "properties": {
          "name": "Sandia Peak Tramway",
          "wikipedia": "https://en.wikipedia.org/wiki/Sandia_Peak_Tramway"
        },
        "geometry": {
          "type": "Point",
          "coordinates": [
            -106.47944444,
            35.19055556
          ]
        }
      }
    ]
  },
  "36": {
    "2": [
      {
        "type": "Feature",
        "properties": {
          "name": "Chréa",
          "wikipedia": "https://en.wikipedia.org/wiki/Chr%C3%A9a"
        },
        "geometry": {
          "type": "Point",
          "coordinates": [
            2.87638889,
            36.42694444
          ]
        }
      }
    ],
    "4": [
      {
        "type": "Feature",
        "properties": {
          "name": "Tikjda",
          "wikipedia": "https://en.wikipedia.org/wiki/Tikjda"
        },
        "geometry": {
          "type": "Point",
          "coordinates": [
            4.13333333,
            36.45
          ]
        }
      }
    ],
    "30": [
      {
        "type": "Feature",
        "properties": {
          "name": "Saklıkent",
          "wikipedia": "https://en.wikipedia.org/wiki/Sakl%C4%B1kent"
        },
        "geometry": {
          "type": "Point",
          "coordinates": [
            30.33638889,
            36.84305556
          ]
        }
      }
    ],
    "76": [
      {
        "type": "Feature",
        "properties": {
          "name": "Karakoram",
          "wikipedia": "https://en.wikipedia.org/wiki/Karakoram"
        },
        "geometry": {
          "type": "Point",
          "coordinates": [
            76,
            36
          ]
        }
      }
    ],
    "-82": [
      {
        "type": "Feature",
        "properties": {
          "name": "Appalachian Ski Mountain",
          "wikipedia": "https://en.wikipedia.org/wiki/Appalachian_Ski_Mountain"
        },
        "geometry": {
          "type": "Point",
          "coordinates": [
            -81.662,
            36.174
          ]
        }
      }
    ],
    "-106": [
      {
        "type": "Feature",
        "properties": {
          "name": "Sipapu (ski area)",
          "wikipedia": "https://en.wikipedia.org/wiki/Sipapu_(ski_area)"
        },
        "geometry": {
          "type": "Point",
          "coordinates": [
            -105.548508,
            36.154211
          ]
        }
      },
      {
        "type": "Feature",
        "properties": {
          "name": "Taos Ski Valley, New Mexico",
          "wikipedia": "https://en.wikipedia.org/wiki/Taos_Ski_Valley,_New_Mexico"
        },
        "geometry": {
          "type": "Point",
          "coordinates": [
            -105.445,
            36.59777778
          ]
        }
      }
    ]
  },
  "37": {
    "14": [
      {
        "type": "Feature",
        "properties": {
          "name": "Mount Etna",
          "wikipedia": "https://en.wikipedia.org/wiki/Mount_Etna"
        },
        "geometry": {
          "type": "Point",
          "coordinates": [
            14.995,
            37.755
          ]
        }
      },
      {
        "type": "Feature",
        "properties": {
          "name": "Petralia Sottana",
          "wikipedia": "https://en.wikipedia.org/wiki/Petralia_Sottana"
        },
        "geometry": {
          "type": "Point",
          "coordinates": [
            14.08333333,
            37.8
          ]
        }
      }
    ],
    "22": [
      {
        "type": "Feature",
        "properties": {
          "name": "Mainalo",
          "wikipedia": "https://en.wikipedia.org/wiki/Mainalo"
        },
        "geometry": {
          "type": "Point",
          "coordinates": [
            22.29444444,
            37.60527778
          ]
        }
      }
    ],
    "128": [
      {
        "type": "Feature",
        "properties": {
          "name": "Jeongseon Alpine Centre",
          "wikipedia": "https://en.wikipedia.org/wiki/Jeongseon_Alpine_Centre"
        },
        "geometry": {
          "type": "Point",
          "coordinates": [
            128.61,
            37.474
          ]
        }
      },
      {
        "type": "Feature",
        "properties": {
          "name": "Yongpyong Resort",
          "wikipedia": "https://en.wikipedia.org/wiki/Yongpyong_Resort"
        },
        "geometry": {
          "type": "Point",
          "coordinates": [
            128.681,
            37.645
          ]
        }
      }
    ],
    "-4": [
      {
        "type": "Feature",
        "properties": {
          "name": "Sierra Nevada Ski Station",
          "wikipedia": "https://en.wikipedia.org/wiki/Sierra_Nevada_Ski_Station"
        },
        "geometry": {
          "type": "Point",
          "coordinates": [
            -3.4,
            37.09
          ]
        }
      }
    ],
    "-109": [
      {
        "type": "Feature",
        "properties": {
          "name": "Hesperus Ski Area",
          "wikipedia": "https://en.wikipedia.org/wiki/Hesperus_Ski_Area"
        },
        "geometry": {
          "type": "Point",
          "coordinates": [
            -108.055,
            37.29777778
          ]
        }
      }
    ],
    "-108": [
      {
        "type": "Feature",
        "properties": {
          "name": "Kendall Mountain Ski Area",
          "wikipedia": "https://en.wikipedia.org/wiki/Kendall_Mountain_Ski_Area"
        },
        "geometry": {
          "type": "Point",
          "coordinates": [
            -107.65652,
            37.81135
          ]
        }
      },
      {
        "type": "Feature",
        "properties": {
          "name": "Silverton Mountain",
          "wikipedia": "https://en.wikipedia.org/wiki/Silverton_Mountain"
        },
        "geometry": {
          "type": "Point",
          "coordinates": [
            -107.66529,
            37.8847
          ]
        }
      }
    ],
    "-113": [
      {
        "type": "Feature",
        "properties": {
          "name": "Brian Head Ski Resort",
          "wikipedia": "https://en.wikipedia.org/wiki/Brian_Head_Ski_Resort"
        },
        "geometry": {
          "type": "Point",
          "coordinates": [
            -112.83333333,
            37.68333333
          ]
        }
      }
    ],
    "-120": [
      {
        "type": "Feature",
        "properties": {
          "name": "Badger Pass Ski Area",
          "wikipedia": "https://en.wikipedia.org/wiki/Badger_Pass_Ski_Area"
        },
        "geometry": {
          "type": "Point",
          "coordinates": [
            -119.6636,
            37.66194
          ]
        }
      },
      {
        "type": "Feature",
        "properties": {
          "name": "Mammoth Mountain Ski Area",
          "wikipedia": "https://en.wikipedia.org/wiki/Mammoth_Mountain_Ski_Area"
        },
        "geometry": {
          "type": "Point",
          "coordinates": [
            -119.0325,
            37.63055556
          ]
        }
      },
      {
        "type": "Feature",
        "properties": {
          "name": "China Peak",
          "wikipedia": "https://en.wikipedia.org/wiki/China_Peak"
        },
        "geometry": {
          "type": "Point",
          "coordinates": [
            -119.1583,
            37.2297
          ]
        }
      }
    ]
  },
  "38": {
    "15": [
      {
        "type": "Feature",
        "properties": {
          "name": "Santo Stefano in Aspromonte",
          "wikipedia": "https://en.wikipedia.org/wiki/Santo_Stefano_in_Aspromonte"
        },
        "geometry": {
          "type": "Point",
          "coordinates": [
            15.78333333,
            38.16666667
          ]
        }
      }
    ],
    "21": [
      {
        "type": "Feature",
        "properties": {
          "name": "Karpenisi",
          "wikipedia": "https://en.wikipedia.org/wiki/Karpenisi"
        },
        "geometry": {
          "type": "Point",
          "coordinates": [
            21.78333333,
            38.91666667
          ]
        }
      }
    ],
    "28": [
      {
        "type": "Feature",
        "properties": {
          "name": "Bozdağ",
          "wikipedia": "https://en.wikipedia.org/wiki/Bozda%C4%9F"
        },
        "geometry": {
          "type": "Point",
          "coordinates": [
            28.08333333,
            38.35
          ]
        }
      }
    ],
    "57": [
      {
        "type": "Feature",
        "properties": {
          "name": "Kopet Dag",
          "wikipedia": "https://en.wikipedia.org/wiki/Kopet_Dag"
        },
        "geometry": {
          "type": "Point",
          "coordinates": [
            57.37333333,
            38.06666667
          ]
        }
      }
    ],
    "68": [
      {
        "type": "Feature",
        "properties": {
          "name": "Safed Dara",
          "wikipedia": "https://en.wikipedia.org/wiki/Safed_Dara"
        },
        "geometry": {
          "type": "Point",
          "coordinates": [
            68.93027778,
            38.84111111
          ]
        }
      }
    ],
    "-79": [
      {
        "type": "Feature",
        "properties": {
          "name": "Bryce Resort",
          "wikipedia": "https://en.wikipedia.org/wiki/Bryce_Resort"
        },
        "geometry": {
          "type": "Point",
          "coordinates": [
            -78.76583333,
            38.8175
          ]
        }
      },
      {
        "type": "Feature",
        "properties": {
          "name": "Massanutten Mountain",
          "wikipedia": "https://en.wikipedia.org/wiki/Massanutten_Mountain"
        },
        "geometry": {
          "type": "Point",
          "coordinates": [
            -78.61202778,
            38.64302778
          ]
        }
      }
    ],
    "-80": [
      {
        "type": "Feature",
        "properties": {
          "name": "Snowshoe Mountain",
          "wikipedia": "https://en.wikipedia.org/wiki/Snowshoe_Mountain"
        },
        "geometry": {
          "type": "Point",
          "coordinates": [
            -79.99472222,
            38.40888889
          ]
        }
      }
    ],
    "-87": [
      {
        "type": "Feature",
        "properties": {
          "name": "Paoli Peaks",
          "wikipedia": "https://en.wikipedia.org/wiki/Paoli_Peaks"
        },
        "geometry": {
          "type": "Point",
          "coordinates": [
            -86.51027778,
            38.55777778
          ]
        }
      }
    ],
    "-91": [
      {
        "type": "Feature",
        "properties": {
          "name": "Hidden Valley Ski Area",
          "wikipedia": "https://en.wikipedia.org/wiki/Hidden_Valley_Ski_Area"
        },
        "geometry": {
          "type": "Point",
          "coordinates": [
            -90.65287,
            38.535578
          ]
        }
      }
    ],
    "-121": [
      {
        "type": "Feature",
        "properties": {
          "name": "Kirkwood Mountain Resort",
          "wikipedia": "https://en.wikipedia.org/wiki/Kirkwood_Mountain_Resort"
        },
        "geometry": {
          "type": "Point",
          "coordinates": [
            -120.068,
            38.684
          ]
        }
      },
      {
        "type": "Feature",
        "properties": {
          "name": "Sierra-at-Tahoe",
          "wikipedia": "https://en.wikipedia.org/wiki/Sierra-at-Tahoe"
        },
        "geometry": {
          "type": "Point",
          "coordinates": [
            -120.0806,
            38.8002
          ]
        }
      },
      {
        "type": "Feature",
        "properties": {
          "name": "Bear Valley (resort)",
          "wikipedia": "https://en.wikipedia.org/wiki/Bear_Valley_(resort)"
        },
        "geometry": {
          "type": "Point",
          "coordinates": [
            -120.00667,
            38.49222
          ]
        }
      }
    ],
    "-120": [
      {
        "type": "Feature",
        "properties": {
          "name": "Dodge Ridge Ski Area",
          "wikipedia": "https://en.wikipedia.org/wiki/Dodge_Ridge_Ski_Area"
        },
        "geometry": {
          "type": "Point",
          "coordinates": [
            -119.9564,
            38.1896
          ]
        }
      }
    ]
  },
  "39": {
    "16": [
      {
        "type": "Feature",
        "properties": {
          "name": "Spezzano della Sila",
          "wikipedia": "https://en.wikipedia.org/wiki/Spezzano_della_Sila"
        },
        "geometry": {
          "type": "Point",
          "coordinates": [
            16.35,
            39.3
          ]
        }
      }
    ],
    "21": [
      {
        "type": "Feature",
        "properties": {
          "name": "Metsovo",
          "wikipedia": "https://en.wikipedia.org/wiki/Metsovo"
        },
        "geometry": {
          "type": "Point",
          "coordinates": [
            21.18333333,
            39.76666667
          ]
        }
      },
      {
        "type": "Feature",
        "properties": {
          "name": "Pertouli",
          "wikipedia": "https://en.wikipedia.org/wiki/Pertouli"
        },
        "geometry": {
          "type": "Point",
          "coordinates": [
            21.46666667,
            39.53333333
          ]
        }
      }
    ],
    "22": [
      {
        "type": "Feature",
        "properties": {
          "name": "Olympos, Larissa",
          "wikipedia": "https://en.wikipedia.org/wiki/Olympos,_Larissa"
        },
        "geometry": {
          "type": "Point",
          "coordinates": [
            22.2,
            39.98333333
          ]
        }
      }
    ],
    "33": [
      {
        "type": "Feature",
        "properties": {
          "name": "Elmadağ, Ankara",
          "wikipedia": "https://en.wikipedia.org/wiki/Elmada%C4%9F,_Ankara"
        },
        "geometry": {
          "type": "Point",
          "coordinates": [
            33.23083333,
            39.92083333
          ]
        }
      }
    ],
    "41": [
      {
        "type": "Feature",
        "properties": {
          "name": "Palandöken Mountain",
          "wikipedia": "https://en.wikipedia.org/wiki/Paland%C3%B6ken_Mountain"
        },
        "geometry": {
          "type": "Point",
          "coordinates": [
            41.28416667,
            39.84888889
          ]
        }
      }
    ],
    "127": [
      {
        "type": "Feature",
        "properties": {
          "name": "Masikryong Ski Resort",
          "wikipedia": "https://en.wikipedia.org/wiki/Masikryong_Ski_Resort"
        },
        "geometry": {
          "type": "Point",
          "coordinates": [
            127.25,
            39.0532
          ]
        }
      }
    ],
    "-80": [
      {
        "type": "Feature",
        "properties": {
          "name": "Canaan Valley Resort State Park",
          "wikipedia": "https://en.wikipedia.org/wiki/Canaan_Valley_Resort_State_Park"
        },
        "geometry": {
          "type": "Point",
          "coordinates": [
            -79.46583333,
            39.02361111
          ]
        }
      }
    ],
    "-85": [
      {
        "type": "Feature",
        "properties": {
          "name": "Perfect North Slopes",
          "wikipedia": "https://en.wikipedia.org/wiki/Perfect_North_Slopes"
        },
        "geometry": {
          "type": "Point",
          "coordinates": [
            -84.886581,
            39.149208
          ]
        }
      }
    ],
    "-95": [
      {
        "type": "Feature",
        "properties": {
          "name": "Snow Creek (ski resort)",
          "wikipedia": "https://en.wikipedia.org/wiki/Snow_Creek_(ski_resort)"
        },
        "geometry": {
          "type": "Point",
          "coordinates": [
            -94.971964,
            39.468651
          ]
        }
      }
    ],
    "-106": [
      {
        "type": "Feature",
        "properties": {
          "name": "Arapahoe Basin",
          "wikipedia": "https://en.wikipedia.org/wiki/Arapahoe_Basin"
        },
        "geometry": {
          "type": "Point",
          "coordinates": [
            -105.87166667,
            39.64166667
          ]
        }
      },
      {
        "type": "Feature",
        "properties": {
          "name": "Loveland Ski Area",
          "wikipedia": "https://en.wikipedia.org/wiki/Loveland_Ski_Area"
        },
        "geometry": {
          "type": "Point",
          "coordinates": [
            -105.897,
            39.68
          ]
        }
      },
      {
        "type": "Feature",
        "properties": {
          "name": "Loveland Ski Area",
          "wikipedia": "https://en.wikipedia.org/wiki/Loveland_Ski_Area#Loveland_Basin"
        },
        "geometry": {
          "type": "Point",
          "coordinates": [
            -105.897,
            39.68
          ]
        }
      },
      {
        "type": "Feature",
        "properties": {
          "name": "Loveland Ski Area",
          "wikipedia": "https://en.wikipedia.org/wiki/Loveland_Ski_Area#Loveland_Valley_Ski_Area"
        },
        "geometry": {
          "type": "Point",
          "coordinates": [
            -105.897,
            39.68
          ]
        }
      }
    ],
    "-107": [
      {
        "type": "Feature",
        "properties": {
          "name": "Aspen Mountain (ski area)",
          "wikipedia": "https://en.wikipedia.org/wiki/Aspen_Mountain_(ski_area)"
        },
        "geometry": {
          "type": "Point",
          "coordinates": [
            -106.81861111,
            39.18638889
          ]
        }
      },
      {
        "type": "Feature",
        "properties": {
          "name": "Snowmass (ski area)",
          "wikipedia": "https://en.wikipedia.org/wiki/Snowmass_(ski_area)"
        },
        "geometry": {
          "type": "Point",
          "coordinates": [
            -106.9513,
            39.1956
          ]
        }
      },
      {
        "type": "Feature",
        "properties": {
          "name": "Beaver Creek Resort",
          "wikipedia": "https://en.wikipedia.org/wiki/Beaver_Creek_Resort"
        },
        "geometry": {
          "type": "Point",
          "coordinates": [
            -106.52166667,
            39.63138889
          ]
        }
      },
      {
        "type": "Feature",
        "properties": {
          "name": "Breckenridge Ski Resort",
          "wikipedia": "https://en.wikipedia.org/wiki/Breckenridge_Ski_Resort"
        },
        "geometry": {
          "type": "Point",
          "coordinates": [
            -106.067,
            39.48
          ]
        }
      },
      {
        "type": "Feature",
        "properties": {
          "name": "Ski Cooper",
          "wikipedia": "https://en.wikipedia.org/wiki/Ski_Cooper"
        },
        "geometry": {
          "type": "Point",
          "coordinates": [
            -106.302,
            39.36
          ]
        }
      },
      {
        "type": "Feature",
        "properties": {
          "name": "Vail Ski Resort",
          "wikipedia": "https://en.wikipedia.org/wiki/Vail_Ski_Resort"
        },
        "geometry": {
          "type": "Point",
          "coordinates": [
            -106.374,
            39.639
          ]
        }
      }
    ],
    "-109": [
      {
        "type": "Feature",
        "properties": {
          "name": "Powderhorn Resort",
          "wikipedia": "https://en.wikipedia.org/wiki/Powderhorn_Resort"
        },
        "geometry": {
          "type": "Point",
          "coordinates": [
            -108.15555556,
            39.06305556
          ]
        }
      }
    ],
    "-121": [
      {
        "type": "Feature",
        "properties": {
          "name": "Alpine Meadows, California",
          "wikipedia": "https://en.wikipedia.org/wiki/Alpine_Meadows,_California"
        },
        "geometry": {
          "type": "Point",
          "coordinates": [
            -120.22777778,
            39.17861111
          ]
        }
      },
      {
        "type": "Feature",
        "properties": {
          "name": "Boreal Mountain Resort",
          "wikipedia": "https://en.wikipedia.org/wiki/Boreal_Mountain_Resort"
        },
        "geometry": {
          "type": "Point",
          "coordinates": [
            -120.3511,
            39.3317
          ]
        }
      },
      {
        "type": "Feature",
        "properties": {
          "name": "Donner Ski Ranch",
          "wikipedia": "https://en.wikipedia.org/wiki/Donner_Ski_Ranch"
        },
        "geometry": {
          "type": "Point",
          "coordinates": [
            -120.38,
            39.32
          ]
        }
      },
      {
        "type": "Feature",
        "properties": {
          "name": "Granlibakken",
          "wikipedia": "https://en.wikipedia.org/wiki/Granlibakken"
        },
        "geometry": {
          "type": "Point",
          "coordinates": [
            -120.1551,
            39.1556
          ]
        }
      },
      {
        "type": "Feature",
        "properties": {
          "name": "Homewood Mountain Resort",
          "wikipedia": "https://en.wikipedia.org/wiki/Homewood_Mountain_Resort"
        },
        "geometry": {
          "type": "Point",
          "coordinates": [
            -120.1755,
            39.0827
          ]
        }
      },
      {
        "type": "Feature",
        "properties": {
          "name": "Squaw Valley Ski Resort",
          "wikipedia": "https://en.wikipedia.org/wiki/Squaw_Valley_Ski_Resort"
        },
        "geometry": {
          "type": "Point",
          "coordinates": [
            -120.235,
            39.196
          ]
        }
      },
      {
        "type": "Feature",
        "properties": {
          "name": "Sugar Bowl Ski Resort",
          "wikipedia": "https://en.wikipedia.org/wiki/Sugar_Bowl_Ski_Resort"
        },
        "geometry": {
          "type": "Point",
          "coordinates": [
            -120.33583,
            39.30444
          ]
        }
      }
    ],
    "-120": [
      {
        "type": "Feature",
        "properties": {
          "name": "Diamond Peak (ski area)",
          "wikipedia": "https://en.wikipedia.org/wiki/Diamond_Peak_(ski_area)"
        },
        "geometry": {
          "type": "Point",
          "coordinates": [
            -119.924,
            39.254
          ]
        }
      }
    ]
  },
  "40": {
    "9": [
      {
        "type": "Feature",
        "properties": {
          "name": "Gennargentu",
          "wikipedia": "https://en.wikipedia.org/wiki/Gennargentu"
        },
        "geometry": {
          "type": "Point",
          "coordinates": [
            9.31666667,
            40.01666667
          ]
        }
      }
    ],
    "15": [
      {
        "type": "Feature",
        "properties": {
          "name": "Laceno",
          "wikipedia": "https://en.wikipedia.org/wiki/Laceno"
        },
        "geometry": {
          "type": "Point",
          "coordinates": [
            15.11111111,
            40.80833333
          ]
        }
      }
    ],
    "20": [
      {
        "type": "Feature",
        "properties": {
          "name": "Dardhë",
          "wikipedia": "https://en.wikipedia.org/wiki/Dardh%C3%AB"
        },
        "geometry": {
          "type": "Point",
          "coordinates": [
            20.82694444,
            40.51861111
          ]
        }
      }
    ],
    "21": [
      {
        "type": "Feature",
        "properties": {
          "name": "Pisoderi",
          "wikipedia": "https://en.wikipedia.org/wiki/Pisoderi"
        },
        "geometry": {
          "type": "Point",
          "coordinates": [
            21.24694444,
            40.78611111
          ]
        }
      },
      {
        "type": "Feature",
        "properties": {
          "name": "Vasilitsa",
          "wikipedia": "https://en.wikipedia.org/wiki/Vasilitsa"
        },
        "geometry": {
          "type": "Point",
          "coordinates": [
            21.1998,
            40.0597
          ]
        }
      },
      {
        "type": "Feature",
        "properties": {
          "name": "Vitsi",
          "wikipedia": "https://en.wikipedia.org/wiki/Vitsi"
        },
        "geometry": {
          "type": "Point",
          "coordinates": [
            21.3,
            40.58333333
          ]
        }
      }
    ],
    "22": [
      {
        "type": "Feature",
        "properties": {
          "name": "Elatochori",
          "wikipedia": "https://en.wikipedia.org/wiki/Elatochori"
        },
        "geometry": {
          "type": "Point",
          "coordinates": [
            22.26666667,
            40.32
          ]
        }
      }
    ],
    "29": [
      {
        "type": "Feature",
        "properties": {
          "name": "Kartepe",
          "wikipedia": "https://en.wikipedia.org/wiki/Kartepe"
        },
        "geometry": {
          "type": "Point",
          "coordinates": [
            29.96666667,
            40.73333333
          ]
        }
      },
      {
        "type": "Feature",
        "properties": {
          "name": "Uludağ",
          "wikipedia": "https://en.wikipedia.org/wiki/Uluda%C4%9F"
        },
        "geometry": {
          "type": "Point",
          "coordinates": [
            29.22154,
            40.07057
          ]
        }
      }
    ],
    "33": [
      {
        "type": "Feature",
        "properties": {
          "name": "Ilgaz",
          "wikipedia": "https://en.wikipedia.org/wiki/Ilgaz"
        },
        "geometry": {
          "type": "Point",
          "coordinates": [
            33.61666667,
            40.91666667
          ]
        }
      }
    ],
    "42": [
      {
        "type": "Feature",
        "properties": {
          "name": "Sarıkamış",
          "wikipedia": "https://en.wikipedia.org/wiki/Sar%C4%B1kam%C4%B1%C5%9F"
        },
        "geometry": {
          "type": "Point",
          "coordinates": [
            42.57305556,
            40.33805556
          ]
        }
      }
    ],
    "47": [
      {
        "type": "Feature",
        "properties": {
          "name": "Qabala",
          "wikipedia": "https://en.wikipedia.org/wiki/Qabala"
        },
        "geometry": {
          "type": "Point",
          "coordinates": [
            47.84583333,
            40.98138889
          ]
        }
      }
    ],
    "-5": [
      {
        "type": "Feature",
        "properties": {
          "name": "Navacerrada",
          "wikipedia": "https://en.wikipedia.org/wiki/Navacerrada"
        },
        "geometry": {
          "type": "Point",
          "coordinates": [
            -4.02222,
            40.7331
          ]
        }
      }
    ],
    "-4": [
      {
        "type": "Feature",
        "properties": {
          "name": "Valdesquí",
          "wikipedia": "https://en.wikipedia.org/wiki/Valdesqu%C3%AD"
        },
        "geometry": {
          "type": "Point",
          "coordinates": [
            -3.9719,
            40.799
          ]
        }
      }
    ],
    "-1": [
      {
        "type": "Feature",
        "properties": {
          "name": "Valdelinares",
          "wikipedia": "https://en.wikipedia.org/wiki/Valdelinares"
        },
        "geometry": {
          "type": "Point",
          "coordinates": [
            -0.6,
            40.4
          ]
        }
      }
    ],
    "-80": [
      {
        "type": "Feature",
        "properties": {
          "name": "Boyce Park",
          "wikipedia": "https://en.wikipedia.org/wiki/Boyce_Park"
        },
        "geometry": {
          "type": "Point",
          "coordinates": [
            -79.74527778,
            40.46555556
          ]
        }
      },
      {
        "type": "Feature",
        "properties": {
          "name": "Seven Springs Mountain Resort",
          "wikipedia": "https://en.wikipedia.org/wiki/Seven_Springs_Mountain_Resort"
        },
        "geometry": {
          "type": "Point",
          "coordinates": [
            -79.29277778,
            40.02305556
          ]
        }
      }
    ],
    "-78": [
      {
        "type": "Feature",
        "properties": {
          "name": "Tussey Mountain Ski Area",
          "wikipedia": "https://en.wikipedia.org/wiki/Tussey_Mountain_Ski_Area"
        },
        "geometry": {
          "type": "Point",
          "coordinates": [
            -77.752,
            40.7682
          ]
        }
      }
    ],
    "-112": [
      {
        "type": "Feature",
        "properties": {
          "name": "Alta Ski Area",
          "wikipedia": "https://en.wikipedia.org/wiki/Alta_Ski_Area"
        },
        "geometry": {
          "type": "Point",
          "coordinates": [
            -111.63722222,
            40.58083333
          ]
        }
      },
      {
        "type": "Feature",
        "properties": {
          "name": "Park City Mountain Resort",
          "wikipedia": "https://en.wikipedia.org/wiki/Park_City_Mountain_Resort"
        },
        "geometry": {
          "type": "Point",
          "coordinates": [
            -111.5075,
            40.65083333
          ]
        }
      },
      {
        "type": "Feature",
        "properties": {
          "name": "Solitude Mountain Resort",
          "wikipedia": "https://en.wikipedia.org/wiki/Solitude_Mountain_Resort"
        },
        "geometry": {
          "type": "Point",
          "coordinates": [
            -111.58891667,
            40.61513889
          ]
        }
      }
    ]
  },
  "41": {
    "13": [
      {
        "type": "Feature",
        "properties": {
          "name": "Subiaco, Lazio",
          "wikipedia": "https://en.wikipedia.org/wiki/Subiaco,_Lazio"
        },
        "geometry": {
          "type": "Point",
          "coordinates": [
            13.1,
            41.93333333
          ]
        }
      },
      {
        "type": "Feature",
        "properties": {
          "name": "Pescasseroli",
          "wikipedia": "https://en.wikipedia.org/wiki/Pescasseroli"
        },
        "geometry": {
          "type": "Point",
          "coordinates": [
            13.78333333,
            41.8
          ]
        }
      },
      {
        "type": "Feature",
        "properties": {
          "name": "Scanno, Abruzzo",
          "wikipedia": "https://en.wikipedia.org/wiki/Scanno,_Abruzzo"
        },
        "geometry": {
          "type": "Point",
          "coordinates": [
            13.88444444,
            41.90194444
          ]
        }
      }
    ],
    "14": [
      {
        "type": "Feature",
        "properties": {
          "name": "Pescocostanzo",
          "wikipedia": "https://en.wikipedia.org/wiki/Pescocostanzo"
        },
        "geometry": {
          "type": "Point",
          "coordinates": [
            14.06638889,
            41.88722222
          ]
        }
      },
      {
        "type": "Feature",
        "properties": {
          "name": "Roccaraso",
          "wikipedia": "https://en.wikipedia.org/wiki/Roccaraso"
        },
        "geometry": {
          "type": "Point",
          "coordinates": [
            14.07916667,
            41.85111111
          ]
        }
      },
      {
        "type": "Feature",
        "properties": {
          "name": "Campitello Matese",
          "wikipedia": "https://en.wikipedia.org/wiki/Campitello_Matese"
        },
        "geometry": {
          "type": "Point",
          "coordinates": [
            14.39416667,
            41.46333333
          ]
        }
      }
    ],
    "22": [
      {
        "type": "Feature",
        "properties": {
          "name": "Kožuf",
          "wikipedia": "https://en.wikipedia.org/wiki/Ko%C5%BEuf"
        },
        "geometry": {
          "type": "Point",
          "coordinates": [
            22.16666667,
            41.21666667
          ]
        }
      }
    ],
    "23": [
      {
        "type": "Feature",
        "properties": {
          "name": "Bansko",
          "wikipedia": "https://en.wikipedia.org/wiki/Bansko"
        },
        "geometry": {
          "type": "Point",
          "coordinates": [
            23.5,
            41.83333333
          ]
        }
      },
      {
        "type": "Feature",
        "properties": {
          "name": "Dobrinishte",
          "wikipedia": "https://en.wikipedia.org/wiki/Dobrinishte"
        },
        "geometry": {
          "type": "Point",
          "coordinates": [
            23.56222222,
            41.82111111
          ]
        }
      }
    ],
    "24": [
      {
        "type": "Feature",
        "properties": {
          "name": "Chepelare",
          "wikipedia": "https://en.wikipedia.org/wiki/Chepelare"
        },
        "geometry": {
          "type": "Point",
          "coordinates": [
            24.68444444,
            41.72583333
          ]
        }
      },
      {
        "type": "Feature",
        "properties": {
          "name": "Pamporovo",
          "wikipedia": "https://en.wikipedia.org/wiki/Pamporovo"
        },
        "geometry": {
          "type": "Point",
          "coordinates": [
            24.68333333,
            41.65
          ]
        }
      },
      {
        "type": "Feature",
        "properties": {
          "name": "Tsigov Chark",
          "wikipedia": "https://en.wikipedia.org/wiki/Tsigov_Chark"
        },
        "geometry": {
          "type": "Point",
          "coordinates": [
            24.15055556,
            41.955
          ]
        }
      },
      {
        "type": "Feature",
        "properties": {
          "name": "Falakro",
          "wikipedia": "https://en.wikipedia.org/wiki/Falakro"
        },
        "geometry": {
          "type": "Point",
          "coordinates": [
            24.0947,
            41.2939
          ]
        }
      }
    ],
    "43": [
      {
        "type": "Feature",
        "properties": {
          "name": "Bakuriani",
          "wikipedia": "https://en.wikipedia.org/wiki/Bakuriani"
        },
        "geometry": {
          "type": "Point",
          "coordinates": [
            43.53333333,
            41.75
          ]
        }
      }
    ],
    "48": [
      {
        "type": "Feature",
        "properties": {
          "name": "Qusar (city)",
          "wikipedia": "https://en.wikipedia.org/wiki/Qusar_(city)"
        },
        "geometry": {
          "type": "Point",
          "coordinates": [
            48.43555556,
            41.42638889
          ]
        }
      },
      {
        "type": "Feature",
        "properties": {
          "name": "Shahdag Mountain Resort",
          "wikipedia": "https://en.wikipedia.org/wiki/Shahdag_Mountain_Resort"
        },
        "geometry": {
          "type": "Point",
          "coordinates": [
            48.14805556,
            41.32166667
          ]
        }
      }
    ],
    "-72": [
      {
        "type": "Feature",
        "properties": {
          "name": "Yawgoo Valley",
          "wikipedia": "https://en.wikipedia.org/wiki/Yawgoo_Valley"
        },
        "geometry": {
          "type": "Point",
          "coordinates": [
            -71.52944444,
            41.51694444
          ]
        }
      }
    ],
    "-74": [
      {
        "type": "Feature",
        "properties": {
          "name": "Mohawk Mountain Ski Area",
          "wikipedia": "https://en.wikipedia.org/wiki/Mohawk_Mountain_Ski_Area"
        },
        "geometry": {
          "type": "Point",
          "coordinates": [
            -73.31342,
            41.83675
          ]
        }
      },
      {
        "type": "Feature",
        "properties": {
          "name": "Woodbury Ski Area",
          "wikipedia": "https://en.wikipedia.org/wiki/Woodbury_Ski_Area"
        },
        "geometry": {
          "type": "Point",
          "coordinates": [
            -73.25578,
            41.58983
          ]
        }
      },
      {
        "type": "Feature",
        "properties": {
          "name": "Thunder Ridge Ski Area",
          "wikipedia": "https://en.wikipedia.org/wiki/Thunder_Ridge_Ski_Area"
        },
        "geometry": {
          "type": "Point",
          "coordinates": [
            -73.58111111,
            41.50722222
          ]
        }
      }
    ],
    "-73": [
      {
        "type": "Feature",
        "properties": {
          "name": "Mount Southington",
          "wikipedia": "https://en.wikipedia.org/wiki/Mount_Southington"
        },
        "geometry": {
          "type": "Point",
          "coordinates": [
            -72.92587,
            41.58235
          ]
        }
      },
      {
        "type": "Feature",
        "properties": {
          "name": "Powder Ridge Ski Area",
          "wikipedia": "https://en.wikipedia.org/wiki/Powder_Ridge_Ski_Area"
        },
        "geometry": {
          "type": "Point",
          "coordinates": [
            -72.737172,
            41.502006
          ]
        }
      },
      {
        "type": "Feature",
        "properties": {
          "name": "Ski Sundown",
          "wikipedia": "https://en.wikipedia.org/wiki/Ski_Sundown"
        },
        "geometry": {
          "type": "Point",
          "coordinates": [
            -72.94523,
            41.88407
          ]
        }
      }
    ],
    "-75": [
      {
        "type": "Feature",
        "properties": {
          "name": "Campgaw Mountain",
          "wikipedia": "https://en.wikipedia.org/wiki/Campgaw_Mountain"
        },
        "geometry": {
          "type": "Point",
          "coordinates": [
            -74.1993123,
            41.0542633
          ]
        }
      },
      {
        "type": "Feature",
        "properties": {
          "name": "Hidden Valley (New Jersey)",
          "wikipedia": "https://en.wikipedia.org/wiki/Hidden_Valley_(New_Jersey)"
        },
        "geometry": {
          "type": "Point",
          "coordinates": [
            -74.4806,
            41.1856
          ]
        }
      },
      {
        "type": "Feature",
        "properties": {
          "name": "Mountain Creek",
          "wikipedia": "https://en.wikipedia.org/wiki/Mountain_Creek"
        },
        "geometry": {
          "type": "Point",
          "coordinates": [
            -74.513,
            41.181
          ]
        }
      },
      {
        "type": "Feature",
        "properties": {
          "name": "Tuxedo Ridge Ski Center",
          "wikipedia": "https://en.wikipedia.org/wiki/Tuxedo_Ridge_Ski_Center"
        },
        "geometry": {
          "type": "Point",
          "coordinates": [
            -74.22722222,
            41.24611111
          ]
        }
      }
    ],
    "-76": [
      {
        "type": "Feature",
        "properties": {
          "name": "Alpine Mountain Ski & Ride Center",
          "wikipedia": "https://en.wikipedia.org/wiki/Alpine_Mountain_Ski_%26_Ride_Center"
        },
        "geometry": {
          "type": "Point",
          "coordinates": [
            -75.2292,
            41.1116
          ]
        }
      },
      {
        "type": "Feature",
        "properties": {
          "name": "Elk Mountain Ski Area",
          "wikipedia": "https://en.wikipedia.org/wiki/Elk_Mountain_Ski_Area"
        },
        "geometry": {
          "type": "Point",
          "coordinates": [
            -75.559,
            41.721
          ]
        }
      },
      {
        "type": "Feature",
        "properties": {
          "name": "Jack Frost Ski Resort",
          "wikipedia": "https://en.wikipedia.org/wiki/Jack_Frost_Ski_Resort"
        },
        "geometry": {
          "type": "Point",
          "coordinates": [
            -75.652,
            41.111
          ]
        }
      },
      {
        "type": "Feature",
        "properties": {
          "name": "Shawnee Mountain Ski Area",
          "wikipedia": "https://en.wikipedia.org/wiki/Shawnee_Mountain_Ski_Area"
        },
        "geometry": {
          "type": "Point",
          "coordinates": [
            -75.08333333,
            41.04083333
          ]
        }
      },
      {
        "type": "Feature",
        "properties": {
          "name": "Ski Big Bear",
          "wikipedia": "https://en.wikipedia.org/wiki/Ski_Big_Bear"
        },
        "geometry": {
          "type": "Point",
          "coordinates": [
            -75.025,
            41.52333333
          ]
        }
      },
      {
        "type": "Feature",
        "properties": {
          "name": "Montage Mountain Ski Resort",
          "wikipedia": "https://en.wikipedia.org/wiki/Montage_Mountain_Ski_Resort"
        },
        "geometry": {
          "type": "Point",
          "coordinates": [
            -75.6592,
            41.3533
          ]
        }
      }
    ],
    "-91": [
      {
        "type": "Feature",
        "properties": {
          "name": "Ski Snowstar",
          "wikipedia": "https://en.wikipedia.org/wiki/Ski_Snowstar"
        },
        "geometry": {
          "type": "Point",
          "coordinates": [
            -90.7438,
            41.425
          ]
        }
      }
    ],
    "-82": [
      {
        "type": "Feature",
        "properties": {
          "name": "Alpine Valley Ski Area",
          "wikipedia": "https://en.wikipedia.org/wiki/Alpine_Valley_Ski_Area"
        },
        "geometry": {
          "type": "Point",
          "coordinates": [
            -81.2662,
            41.5303
          ]
        }
      }
    ],
    "-112": [
      {
        "type": "Feature",
        "properties": {
          "name": "Beaver Mountain",
          "wikipedia": "https://en.wikipedia.org/wiki/Beaver_Mountain"
        },
        "geometry": {
          "type": "Point",
          "coordinates": [
            -111.541,
            41.968
          ]
        }
      },
      {
        "type": "Feature",
        "properties": {
          "name": "Cherry Peak Resort",
          "wikipedia": "https://en.wikipedia.org/wiki/Cherry_Peak_Resort"
        },
        "geometry": {
          "type": "Point",
          "coordinates": [
            -111.75666667,
            41.92638889
          ]
        }
      },
      {
        "type": "Feature",
        "properties": {
          "name": "Snowbasin",
          "wikipedia": "https://en.wikipedia.org/wiki/Snowbasin"
        },
        "geometry": {
          "type": "Point",
          "coordinates": [
            -111.857,
            41.216
          ]
        }
      },
      {
        "type": "Feature",
        "properties": {
          "name": "Nordic Valley, Utah",
          "wikipedia": "https://en.wikipedia.org/wiki/Nordic_Valley,_Utah"
        },
        "geometry": {
          "type": "Point",
          "coordinates": [
            -111.85833333,
            41.3
          ]
        }
      }
    ],
    "-123": [
      {
        "type": "Feature",
        "properties": {
          "name": "Mount Shasta Ski Park",
          "wikipedia": "https://en.wikipedia.org/wiki/Mount_Shasta_Ski_Park"
        },
        "geometry": {
          "type": "Point",
          "coordinates": [
            -122.2036,
            41.32
          ]
        }
      }
    ]
  },
  "42": {
    "0": [
      {
        "type": "Feature",
        "properties": {
          "name": "Gavarnie-Gèdre",
          "wikipedia": "https://en.wikipedia.org/wiki/Gavarnie-G%C3%A8dre"
        },
        "geometry": {
          "type": "Point",
          "coordinates": [
            0.019,
            42.789
          ]
        }
      },
      {
        "type": "Feature",
        "properties": {
          "name": "Saint-Lary-Soulan",
          "wikipedia": "https://en.wikipedia.org/wiki/Saint-Lary-Soulan"
        },
        "geometry": {
          "type": "Point",
          "coordinates": [
            0.32,
            42.82
          ]
        }
      },
      {
        "type": "Feature",
        "properties": {
          "name": "Superbagnères",
          "wikipedia": "https://en.wikipedia.org/wiki/Superbagn%C3%A8res"
        },
        "geometry": {
          "type": "Point",
          "coordinates": [
            0.577,
            42.768
          ]
        }
      },
      {
        "type": "Feature",
        "properties": {
          "name": "Cerler",
          "wikipedia": "https://en.wikipedia.org/wiki/Cerler"
        },
        "geometry": {
          "type": "Point",
          "coordinates": [
            0.53833333,
            42.59333333
          ]
        }
      }
    ],
    "1": [
      {
        "type": "Feature",
        "properties": {
          "name": "Soldeu",
          "wikipedia": "https://en.wikipedia.org/wiki/Soldeu"
        },
        "geometry": {
          "type": "Point",
          "coordinates": [
            1.66722222,
            42.57694444
          ]
        }
      },
      {
        "type": "Feature",
        "properties": {
          "name": "El Tarter",
          "wikipedia": "https://en.wikipedia.org/wiki/El_Tarter"
        },
        "geometry": {
          "type": "Point",
          "coordinates": [
            1.65,
            42.58333333
          ]
        }
      },
      {
        "type": "Feature",
        "properties": {
          "name": "Grau Roig",
          "wikipedia": "https://en.wikipedia.org/wiki/Grau_Roig"
        },
        "geometry": {
          "type": "Point",
          "coordinates": [
            1.701,
            42.533
          ]
        }
      },
      {
        "type": "Feature",
        "properties": {
          "name": "Vallnord",
          "wikipedia": "https://en.wikipedia.org/wiki/Vallnord"
        },
        "geometry": {
          "type": "Point",
          "coordinates": [
            1.492425,
            42.54278056
          ]
        }
      },
      {
        "type": "Feature",
        "properties": {
          "name": "Ax 3 Domaines",
          "wikipedia": "https://en.wikipedia.org/wiki/Ax_3_Domaines"
        },
        "geometry": {
          "type": "Point",
          "coordinates": [
            1.81388889,
            42.70083333
          ]
        }
      },
      {
        "type": "Feature",
        "properties": {
          "name": "Camurac",
          "wikipedia": "https://en.wikipedia.org/wiki/Camurac"
        },
        "geometry": {
          "type": "Point",
          "coordinates": [
            1.9158,
            42.7992
          ]
        }
      },
      {
        "type": "Feature",
        "properties": {
          "name": "Porté-Puymorens",
          "wikipedia": "https://en.wikipedia.org/wiki/Port%C3%A9-Puymorens"
        },
        "geometry": {
          "type": "Point",
          "coordinates": [
            1.8325,
            42.5492
          ]
        }
      },
      {
        "type": "Feature",
        "properties": {
          "name": "Alp 2500",
          "wikipedia": "https://en.wikipedia.org/wiki/Alp_2500"
        },
        "geometry": {
          "type": "Point",
          "coordinates": [
            1.914024,
            42.329375
          ]
        }
      }
    ],
    "2": [
      {
        "type": "Feature",
        "properties": {
          "name": "Formiguères",
          "wikipedia": "https://en.wikipedia.org/wiki/Formigu%C3%A8res"
        },
        "geometry": {
          "type": "Point",
          "coordinates": [
            2.1025,
            42.6156
          ]
        }
      },
      {
        "type": "Feature",
        "properties": {
          "name": "Puyvalador",
          "wikipedia": "https://en.wikipedia.org/wiki/Puyvalador"
        },
        "geometry": {
          "type": "Point",
          "coordinates": [
            2.1206,
            42.6472
          ]
        }
      },
      {
        "type": "Feature",
        "properties": {
          "name": "Vall de Núria",
          "wikipedia": "https://en.wikipedia.org/wiki/Vall_de_N%C3%BAria"
        },
        "geometry": {
          "type": "Point",
          "coordinates": [
            2.15,
            42.4
          ]
        }
      }
    ],
    "9": [
      {
        "type": "Feature",
        "properties": {
          "name": "Ghisoni",
          "wikipedia": "https://en.wikipedia.org/wiki/Ghisoni"
        },
        "geometry": {
          "type": "Point",
          "coordinates": [
            9.2117,
            42.1042
          ]
        }
      }
    ],
    "11": [
      {
        "type": "Feature",
        "properties": {
          "name": "Monte Amiata",
          "wikipedia": "https://en.wikipedia.org/wiki/Monte_Amiata"
        },
        "geometry": {
          "type": "Point",
          "coordinates": [
            11.63333333,
            42.9
          ]
        }
      }
    ],
    "13": [
      {
        "type": "Feature",
        "properties": {
          "name": "Ussita",
          "wikipedia": "https://en.wikipedia.org/wiki/Ussita"
        },
        "geometry": {
          "type": "Point",
          "coordinates": [
            13.13333333,
            42.95
          ]
        }
      },
      {
        "type": "Feature",
        "properties": {
          "name": "Monte Terminillo",
          "wikipedia": "https://en.wikipedia.org/wiki/Monte_Terminillo"
        },
        "geometry": {
          "type": "Point",
          "coordinates": [
            13,
            42.48333333
          ]
        }
      },
      {
        "type": "Feature",
        "properties": {
          "name": "Campo Felice",
          "wikipedia": "https://en.wikipedia.org/wiki/Campo_Felice"
        },
        "geometry": {
          "type": "Point",
          "coordinates": [
            13.44805556,
            42.21583333
          ]
        }
      },
      {
        "type": "Feature",
        "properties": {
          "name": "Campo Imperatore",
          "wikipedia": "https://en.wikipedia.org/wiki/Campo_Imperatore"
        },
        "geometry": {
          "type": "Point",
          "coordinates": [
            13.58777778,
            42.44194444
          ]
        }
      },
      {
        "type": "Feature",
        "properties": {
          "name": "Ovindoli",
          "wikipedia": "https://en.wikipedia.org/wiki/Ovindoli"
        },
        "geometry": {
          "type": "Point",
          "coordinates": [
            13.51694444,
            42.13805556
          ]
        }
      },
      {
        "type": "Feature",
        "properties": {
          "name": "Pietracamela",
          "wikipedia": "https://en.wikipedia.org/wiki/Pietracamela"
        },
        "geometry": {
          "type": "Point",
          "coordinates": [
            13.55,
            42.53333333
          ]
        }
      }
    ],
    "14": [
      {
        "type": "Feature",
        "properties": {
          "name": "Campo di Giove",
          "wikipedia": "https://en.wikipedia.org/wiki/Campo_di_Giove"
        },
        "geometry": {
          "type": "Point",
          "coordinates": [
            14.04027778,
            42.01111111
          ]
        }
      },
      {
        "type": "Feature",
        "properties": {
          "name": "Pretoro",
          "wikipedia": "https://en.wikipedia.org/wiki/Pretoro"
        },
        "geometry": {
          "type": "Point",
          "coordinates": [
            14.13333333,
            42.21666667
          ]
        }
      }
    ],
    "19": [
      {
        "type": "Feature",
        "properties": {
          "name": "Kolašin",
          "wikipedia": "https://en.wikipedia.org/wiki/Kola%C5%A1in"
        },
        "geometry": {
          "type": "Point",
          "coordinates": [
            19.5225,
            42.82361111
          ]
        }
      }
    ],
    "20": [
      {
        "type": "Feature",
        "properties": {
          "name": "Popova Šapka",
          "wikipedia": "https://en.wikipedia.org/wiki/Popova_%C5%A0apka"
        },
        "geometry": {
          "type": "Point",
          "coordinates": [
            20.88,
            42.01416667
          ]
        }
      }
    ],
    "21": [
      {
        "type": "Feature",
        "properties": {
          "name": "Brezovica, Kosovo",
          "wikipedia": "https://en.wikipedia.org/wiki/Brezovica,_Kosovo"
        },
        "geometry": {
          "type": "Point",
          "coordinates": [
            21.00472222,
            42.22194444
          ]
        }
      }
    ],
    "22": [
      {
        "type": "Feature",
        "properties": {
          "name": "Osogovo",
          "wikipedia": "https://en.wikipedia.org/wiki/Osogovo"
        },
        "geometry": {
          "type": "Point",
          "coordinates": [
            22.51666667,
            42.15833333
          ]
        }
      },
      {
        "type": "Feature",
        "properties": {
          "name": "Besna Kobila",
          "wikipedia": "https://en.wikipedia.org/wiki/Besna_Kobila"
        },
        "geometry": {
          "type": "Point",
          "coordinates": [
            22.23055556,
            42.52944444
          ]
        }
      }
    ],
    "23": [
      {
        "type": "Feature",
        "properties": {
          "name": "Borovets",
          "wikipedia": "https://en.wikipedia.org/wiki/Borovets"
        },
        "geometry": {
          "type": "Point",
          "coordinates": [
            23.60694444,
            42.26444444
          ]
        }
      },
      {
        "type": "Feature",
        "properties": {
          "name": "Govedartsi",
          "wikipedia": "https://en.wikipedia.org/wiki/Govedartsi"
        },
        "geometry": {
          "type": "Point",
          "coordinates": [
            23.47805556,
            42.26277778
          ]
        }
      },
      {
        "type": "Feature",
        "properties": {
          "name": "Malyovitsa",
          "wikipedia": "https://en.wikipedia.org/wiki/Malyovitsa"
        },
        "geometry": {
          "type": "Point",
          "coordinates": [
            23.36308333,
            42.17386111
          ]
        }
      },
      {
        "type": "Feature",
        "properties": {
          "name": "Panichishte",
          "wikipedia": "https://en.wikipedia.org/wiki/Panichishte"
        },
        "geometry": {
          "type": "Point",
          "coordinates": [
            23.295,
            42.26138889
          ]
        }
      },
      {
        "type": "Feature",
        "properties": {
          "name": "Semkovo",
          "wikipedia": "https://en.wikipedia.org/wiki/Semkovo"
        },
        "geometry": {
          "type": "Point",
          "coordinates": [
            23.53388889,
            42.04388889
          ]
        }
      }
    ],
    "25": [
      {
        "type": "Feature",
        "properties": {
          "name": "Uzana",
          "wikipedia": "https://en.wikipedia.org/wiki/Uzana"
        },
        "geometry": {
          "type": "Point",
          "coordinates": [
            25.23722222,
            42.75833333
          ]
        }
      }
    ],
    "43": [
      {
        "type": "Feature",
        "properties": {
          "name": "Tsey",
          "wikipedia": "https://en.wikipedia.org/wiki/Tsey"
        },
        "geometry": {
          "type": "Point",
          "coordinates": [
            43.88333333,
            42.76666667
          ]
        }
      }
    ],
    "44": [
      {
        "type": "Feature",
        "properties": {
          "name": "Gudauri",
          "wikipedia": "https://en.wikipedia.org/wiki/Gudauri"
        },
        "geometry": {
          "type": "Point",
          "coordinates": [
            44.47444444,
            42.4775
          ]
        }
      }
    ],
    "78": [
      {
        "type": "Feature",
        "properties": {
          "name": "Karakol",
          "wikipedia": "https://en.wikipedia.org/wiki/Karakol"
        },
        "geometry": {
          "type": "Point",
          "coordinates": [
            78.4,
            42.48333333
          ]
        }
      }
    ],
    "-1": [
      {
        "type": "Feature",
        "properties": {
          "name": "Cauterets",
          "wikipedia": "https://en.wikipedia.org/wiki/Cauterets"
        },
        "geometry": {
          "type": "Point",
          "coordinates": [
            -0.11,
            42.89
          ]
        }
      },
      {
        "type": "Feature",
        "properties": {
          "name": "Gourette",
          "wikipedia": "https://en.wikipedia.org/wiki/Gourette"
        },
        "geometry": {
          "type": "Point",
          "coordinates": [
            -0.33222222,
            42.95805556
          ]
        }
      },
      {
        "type": "Feature",
        "properties": {
          "name": "Hautacam",
          "wikipedia": "https://en.wikipedia.org/wiki/Hautacam"
        },
        "geometry": {
          "type": "Point",
          "coordinates": [
            -0.008056,
            42.972222
          ]
        }
      },
      {
        "type": "Feature",
        "properties": {
          "name": "Luz Ardiden",
          "wikipedia": "https://en.wikipedia.org/wiki/Luz_Ardiden"
        },
        "geometry": {
          "type": "Point",
          "coordinates": [
            -0.06138889,
            42.88555556
          ]
        }
      },
      {
        "type": "Feature",
        "properties": {
          "name": "Somport",
          "wikipedia": "https://en.wikipedia.org/wiki/Somport"
        },
        "geometry": {
          "type": "Point",
          "coordinates": [
            -0.54583333,
            42.79361111
          ]
        }
      },
      {
        "type": "Feature",
        "properties": {
          "name": "Panticosa-Los Lagos",
          "wikipedia": "https://en.wikipedia.org/wiki/Panticosa-Los_Lagos"
        },
        "geometry": {
          "type": "Point",
          "coordinates": [
            -0.274594,
            42.702989
          ]
        }
      },
      {
        "type": "Feature",
        "properties": {
          "name": "Astún",
          "wikipedia": "https://en.wikipedia.org/wiki/Ast%C3%BAn"
        },
        "geometry": {
          "type": "Point",
          "coordinates": [
            -0.50611111,
            42.80972222
          ]
        }
      },
      {
        "type": "Feature",
        "properties": {
          "name": "Candanchú",
          "wikipedia": "https://en.wikipedia.org/wiki/Candanch%C3%BA"
        },
        "geometry": {
          "type": "Point",
          "coordinates": [
            -0.52777778,
            42.78805556
          ]
        }
      }
    ],
    "-8": [
      {
        "type": "Feature",
        "properties": {
          "name": "Manzaneda",
          "wikipedia": "https://en.wikipedia.org/wiki/Manzaneda"
        },
        "geometry": {
          "type": "Point",
          "coordinates": [
            -7.23333333,
            42.30944444
          ]
        }
      }
    ],
    "-3": [
      {
        "type": "Feature",
        "properties": {
          "name": "Valdezcaray",
          "wikipedia": "https://en.wikipedia.org/wiki/Valdezcaray"
        },
        "geometry": {
          "type": "Point",
          "coordinates": [
            -2.96666667,
            42.25
          ]
        }
      }
    ],
    "-82": [
      {
        "type": "Feature",
        "properties": {
          "name": "Boler Mountain",
          "wikipedia": "https://en.wikipedia.org/wiki/Boler_Mountain"
        },
        "geometry": {
          "type": "Point",
          "coordinates": [
            -81.34,
            42.94
          ]
        }
      }
    ],
    "-74": [
      {
        "type": "Feature",
        "properties": {
          "name": "Bousquet Ski Area",
          "wikipedia": "https://en.wikipedia.org/wiki/Bousquet_Ski_Area"
        },
        "geometry": {
          "type": "Point",
          "coordinates": [
            -73.27916667,
            42.41611111
          ]
        }
      },
      {
        "type": "Feature",
        "properties": {
          "name": "Ski Butternut",
          "wikipedia": "https://en.wikipedia.org/wiki/Ski_Butternut"
        },
        "geometry": {
          "type": "Point",
          "coordinates": [
            -73.31694444,
            42.17805556
          ]
        }
      },
      {
        "type": "Feature",
        "properties": {
          "name": "Jiminy Peak (ski area)",
          "wikipedia": "https://en.wikipedia.org/wiki/Jiminy_Peak_(ski_area)"
        },
        "geometry": {
          "type": "Point",
          "coordinates": [
            -73.29083333,
            42.55083333
          ]
        }
      },
      {
        "type": "Feature",
        "properties": {
          "name": "Catamount Ski Area",
          "wikipedia": "https://en.wikipedia.org/wiki/Catamount_Ski_Area"
        },
        "geometry": {
          "type": "Point",
          "coordinates": [
            -73.477764,
            42.171457
          ]
        }
      }
    ],
    "-72": [
      {
        "type": "Feature",
        "properties": {
          "name": "Nashoba Valley Ski Area",
          "wikipedia": "https://en.wikipedia.org/wiki/Nashoba_Valley_Ski_Area"
        },
        "geometry": {
          "type": "Point",
          "coordinates": [
            -71.44410278,
            42.541975
          ]
        }
      },
      {
        "type": "Feature",
        "properties": {
          "name": "Ski Bradford",
          "wikipedia": "https://en.wikipedia.org/wiki/Ski_Bradford"
        },
        "geometry": {
          "type": "Point",
          "coordinates": [
            -71.05888889,
            42.74361111
          ]
        }
      },
      {
        "type": "Feature",
        "properties": {
          "name": "Wachusett Mountain (ski area)",
          "wikipedia": "https://en.wikipedia.org/wiki/Wachusett_Mountain_(ski_area)"
        },
        "geometry": {
          "type": "Point",
          "coordinates": [
            -71.88638889,
            42.49944444
          ]
        }
      },
      {
        "type": "Feature",
        "properties": {
          "name": "Crotched Mountain",
          "wikipedia": "https://en.wikipedia.org/wiki/Crotched_Mountain"
        },
        "geometry": {
          "type": "Point",
          "coordinates": [
            -71.8737123,
            42.99829411
          ]
        }
      }
    ],
    "-78": [
      {
        "type": "Feature",
        "properties": {
          "name": "Bristol Mountain Ski Resort",
          "wikipedia": "https://en.wikipedia.org/wiki/Bristol_Mountain_Ski_Resort"
        },
        "geometry": {
          "type": "Point",
          "coordinates": [
            -77.404444,
            42.745
          ]
        }
      }
    ],
    "-79": [
      {
        "type": "Feature",
        "properties": {
          "name": "Holiday Valley (ski resort)",
          "wikipedia": "https://en.wikipedia.org/wiki/Holiday_Valley_(ski_resort)"
        },
        "geometry": {
          "type": "Point",
          "coordinates": [
            -78.66805556,
            42.2625
          ]
        }
      }
    ],
    "-75": [
      {
        "type": "Feature",
        "properties": {
          "name": "Plattekill Mountain",
          "wikipedia": "https://en.wikipedia.org/wiki/Plattekill_Mountain"
        },
        "geometry": {
          "type": "Point",
          "coordinates": [
            -74.653678,
            42.290251
          ]
        }
      },
      {
        "type": "Feature",
        "properties": {
          "name": "Windham Mountain",
          "wikipedia": "https://en.wikipedia.org/wiki/Windham_Mountain"
        },
        "geometry": {
          "type": "Point",
          "coordinates": [
            -74.25944444,
            42.29166667
          ]
        }
      }
    ],
    "-84": [
      {
        "type": "Feature",
        "properties": {
          "name": "Pine Knob",
          "wikipedia": "https://en.wikipedia.org/wiki/Pine_Knob"
        },
        "geometry": {
          "type": "Point",
          "coordinates": [
            -83.3671629,
            42.7422524
          ]
        }
      }
    ],
    "-86": [
      {
        "type": "Feature",
        "properties": {
          "name": "Timber Ridge Ski Area",
          "wikipedia": "https://en.wikipedia.org/wiki/Timber_Ridge_Ski_Area"
        },
        "geometry": {
          "type": "Point",
          "coordinates": [
            -85.779052,
            42.391711
          ]
        }
      }
    ],
    "-89": [
      {
        "type": "Feature",
        "properties": {
          "name": "Alpine Valley Resort (Wisconsin)",
          "wikipedia": "https://en.wikipedia.org/wiki/Alpine_Valley_Resort_(Wisconsin)"
        },
        "geometry": {
          "type": "Point",
          "coordinates": [
            -88.428,
            42.736
          ]
        }
      },
      {
        "type": "Feature",
        "properties": {
          "name": "Wilmot Mountain",
          "wikipedia": "https://en.wikipedia.org/wiki/Wilmot_Mountain"
        },
        "geometry": {
          "type": "Point",
          "coordinates": [
            -88.18888889,
            42.5
          ]
        }
      }
    ],
    "-115": [
      {
        "type": "Feature",
        "properties": {
          "name": "Magic Mountain Resort",
          "wikipedia": "https://en.wikipedia.org/wiki/Magic_Mountain_Resort"
        },
        "geometry": {
          "type": "Point",
          "coordinates": [
            -114.28611111,
            42.18830556
          ]
        }
      }
    ],
    "-113": [
      {
        "type": "Feature",
        "properties": {
          "name": "Pebble Creek, Idaho",
          "wikipedia": "https://en.wikipedia.org/wiki/Pebble_Creek,_Idaho"
        },
        "geometry": {
          "type": "Point",
          "coordinates": [
            -112.16,
            42.778
          ]
        }
      }
    ],
    "-114": [
      {
        "type": "Feature",
        "properties": {
          "name": "Pomerelle",
          "wikipedia": "https://en.wikipedia.org/wiki/Pomerelle"
        },
        "geometry": {
          "type": "Point",
          "coordinates": [
            -113.608,
            42.318
          ]
        }
      }
    ],
    "-123": [
      {
        "type": "Feature",
        "properties": {
          "name": "Mount Ashland Ski Area",
          "wikipedia": "https://en.wikipedia.org/wiki/Mount_Ashland_Ski_Area"
        },
        "geometry": {
          "type": "Point",
          "coordinates": [
            -122.71666667,
            42.08333333
          ]
        }
      }
    ],
    "-121": [
      {
        "type": "Feature",
        "properties": {
          "name": "Warner Canyon",
          "wikipedia": "https://en.wikipedia.org/wiki/Warner_Canyon"
        },
        "geometry": {
          "type": "Point",
          "coordinates": [
            -120.29583,
            42.23749
          ]
        }
      }
    ]
  },
  "43": {
    "0": [
      {
        "type": "Feature",
        "properties": {
          "name": "Les Angles, Hautes-Pyrénées",
          "wikipedia": "https://en.wikipedia.org/wiki/Les_Angles,_Hautes-Pyr%C3%A9n%C3%A9es"
        },
        "geometry": {
          "type": "Point",
          "coordinates": [
            0.0075,
            43.0836
          ]
        }
      },
      {
        "type": "Feature",
        "properties": {
          "name": "Nistos",
          "wikipedia": "https://en.wikipedia.org/wiki/Nistos"
        },
        "geometry": {
          "type": "Point",
          "coordinates": [
            0.48,
            43.0181
          ]
        }
      }
    ],
    "13": [
      {
        "type": "Feature",
        "properties": {
          "name": "Sarnano",
          "wikipedia": "https://en.wikipedia.org/wiki/Sarnano"
        },
        "geometry": {
          "type": "Point",
          "coordinates": [
            13.3,
            43.03333333
          ]
        }
      }
    ],
    "17": [
      {
        "type": "Feature",
        "properties": {
          "name": "Blidinje",
          "wikipedia": "https://en.wikipedia.org/wiki/Blidinje"
        },
        "geometry": {
          "type": "Point",
          "coordinates": [
            17.61,
            43.62
          ]
        }
      }
    ],
    "18": [
      {
        "type": "Feature",
        "properties": {
          "name": "Bjelašnica",
          "wikipedia": "https://en.wikipedia.org/wiki/Bjela%C5%A1nica"
        },
        "geometry": {
          "type": "Point",
          "coordinates": [
            18.257,
            43.704
          ]
        }
      },
      {
        "type": "Feature",
        "properties": {
          "name": "Igman",
          "wikipedia": "https://en.wikipedia.org/wiki/Igman"
        },
        "geometry": {
          "type": "Point",
          "coordinates": [
            18.15,
            43.74
          ]
        }
      },
      {
        "type": "Feature",
        "properties": {
          "name": "Jahorina",
          "wikipedia": "https://en.wikipedia.org/wiki/Jahorina"
        },
        "geometry": {
          "type": "Point",
          "coordinates": [
            18.570349,
            43.742236
          ]
        }
      }
    ],
    "19": [
      {
        "type": "Feature",
        "properties": {
          "name": "Mokra Gora",
          "wikipedia": "https://en.wikipedia.org/wiki/Mokra_Gora"
        },
        "geometry": {
          "type": "Point",
          "coordinates": [
            19.506933,
            43.792478
          ]
        }
      },
      {
        "type": "Feature",
        "properties": {
          "name": "Zlatar (mountain)",
          "wikipedia": "https://en.wikipedia.org/wiki/Zlatar_(mountain)"
        },
        "geometry": {
          "type": "Point",
          "coordinates": [
            19.7925,
            43.40888889
          ]
        }
      },
      {
        "type": "Feature",
        "properties": {
          "name": "Zlatibor",
          "wikipedia": "https://en.wikipedia.org/wiki/Zlatibor"
        },
        "geometry": {
          "type": "Point",
          "coordinates": [
            19.679,
            43.648
          ]
        }
      }
    ],
    "20": [
      {
        "type": "Feature",
        "properties": {
          "name": "Golija",
          "wikipedia": "https://en.wikipedia.org/wiki/Golija"
        },
        "geometry": {
          "type": "Point",
          "coordinates": [
            20.27666667,
            43.33777778
          ]
        }
      },
      {
        "type": "Feature",
        "properties": {
          "name": "Kopaonik",
          "wikipedia": "https://en.wikipedia.org/wiki/Kopaonik"
        },
        "geometry": {
          "type": "Point",
          "coordinates": [
            20.8225,
            43.26916667
          ]
        }
      }
    ],
    "23": [
      {
        "type": "Feature",
        "properties": {
          "name": "Berkovitsa",
          "wikipedia": "https://en.wikipedia.org/wiki/Berkovitsa"
        },
        "geometry": {
          "type": "Point",
          "coordinates": [
            23.11666667,
            43.23333333
          ]
        }
      },
      {
        "type": "Feature",
        "properties": {
          "name": "Kom Peak",
          "wikipedia": "https://en.wikipedia.org/wiki/Kom_Peak"
        },
        "geometry": {
          "type": "Point",
          "coordinates": [
            23.05,
            43.16666667
          ]
        }
      },
      {
        "type": "Feature",
        "properties": {
          "name": "Parshevitsa",
          "wikipedia": "https://en.wikipedia.org/wiki/Parshevitsa"
        },
        "geometry": {
          "type": "Point",
          "coordinates": [
            23.47611111,
            43.14305556
          ]
        }
      }
    ],
    "40": [
      {
        "type": "Feature",
        "properties": {
          "name": "Krasnaya Polyana, Sochi, Krasnodar Krai",
          "wikipedia": "https://en.wikipedia.org/wiki/Krasnaya_Polyana,_Sochi,_Krasnodar_Krai"
        },
        "geometry": {
          "type": "Point",
          "coordinates": [
            40.20527778,
            43.67861111
          ]
        }
      },
      {
        "type": "Feature",
        "properties": {
          "name": "Rosa Khutor Alpine Resort",
          "wikipedia": "https://en.wikipedia.org/wiki/Rosa_Khutor_Alpine_Resort"
        },
        "geometry": {
          "type": "Point",
          "coordinates": [
            40.332,
            43.646
          ]
        }
      }
    ],
    "41": [
      {
        "type": "Feature",
        "properties": {
          "name": "Dombay, Karachay-Cherkess Republic",
          "wikipedia": "https://en.wikipedia.org/wiki/Dombay,_Karachay-Cherkess_Republic"
        },
        "geometry": {
          "type": "Point",
          "coordinates": [
            41.63333333,
            43.3
          ]
        }
      }
    ],
    "42": [
      {
        "type": "Feature",
        "properties": {
          "name": "Mestia",
          "wikipedia": "https://en.wikipedia.org/wiki/Mestia"
        },
        "geometry": {
          "type": "Point",
          "coordinates": [
            42.72972222,
            43.04555556
          ]
        }
      }
    ],
    "76": [
      {
        "type": "Feature",
        "properties": {
          "name": "Akbulak, Kazakhstan",
          "wikipedia": "https://en.wikipedia.org/wiki/Akbulak,_Kazakhstan"
        },
        "geometry": {
          "type": "Point",
          "coordinates": [
            76.82777778,
            43.24555556
          ]
        }
      }
    ],
    "77": [
      {
        "type": "Feature",
        "properties": {
          "name": "Shymbulak",
          "wikipedia": "https://en.wikipedia.org/wiki/Shymbulak"
        },
        "geometry": {
          "type": "Point",
          "coordinates": [
            77.08083333,
            43.12805556
          ]
        }
      }
    ],
    "-81": [
      {
        "type": "Feature",
        "properties": {
          "name": "Caledon Ski Club",
          "wikipedia": "https://en.wikipedia.org/wiki/Caledon_Ski_Club"
        },
        "geometry": {
          "type": "Point",
          "coordinates": [
            -80.0109,
            43.8039
          ]
        }
      },
      {
        "type": "Feature",
        "properties": {
          "name": "Hockley Valley",
          "wikipedia": "https://en.wikipedia.org/wiki/Hockley_Valley"
        },
        "geometry": {
          "type": "Point",
          "coordinates": [
            -80.0471,
            43.9779
          ]
        }
      }
    ],
    "-71": [
      {
        "type": "Feature",
        "properties": {
          "name": "Powderhouse Hill (ski area)",
          "wikipedia": "https://en.wikipedia.org/wiki/Powderhouse_Hill_(ski_area)"
        },
        "geometry": {
          "type": "Point",
          "coordinates": [
            -70.80222222,
            43.23694444
          ]
        }
      }
    ],
    "-73": [
      {
        "type": "Feature",
        "properties": {
          "name": "Dartmouth Skiway",
          "wikipedia": "https://en.wikipedia.org/wiki/Dartmouth_Skiway"
        },
        "geometry": {
          "type": "Point",
          "coordinates": [
            -72.10083,
            43.78694
          ]
        }
      },
      {
        "type": "Feature",
        "properties": {
          "name": "Mount Sunapee Resort",
          "wikipedia": "https://en.wikipedia.org/wiki/Mount_Sunapee_Resort"
        },
        "geometry": {
          "type": "Point",
          "coordinates": [
            -72.08,
            43.33055556
          ]
        }
      },
      {
        "type": "Feature",
        "properties": {
          "name": "Whaleback (ski area)",
          "wikipedia": "https://en.wikipedia.org/wiki/Whaleback_(ski_area)"
        },
        "geometry": {
          "type": "Point",
          "coordinates": [
            -72.18138889,
            43.60138889
          ]
        }
      },
      {
        "type": "Feature",
        "properties": {
          "name": "Ascutney Mountain Resort",
          "wikipedia": "https://en.wikipedia.org/wiki/Ascutney_Mountain_Resort"
        },
        "geometry": {
          "type": "Point",
          "coordinates": [
            -72.46611111,
            43.46333333
          ]
        }
      },
      {
        "type": "Feature",
        "properties": {
          "name": "Killington Ski Resort",
          "wikipedia": "https://en.wikipedia.org/wiki/Killington_Ski_Resort"
        },
        "geometry": {
          "type": "Point",
          "coordinates": [
            -72.798,
            43.626
          ]
        }
      },
      {
        "type": "Feature",
        "properties": {
          "name": "Middlebury College Snow Bowl",
          "wikipedia": "https://en.wikipedia.org/wiki/Middlebury_College_Snow_Bowl"
        },
        "geometry": {
          "type": "Point",
          "coordinates": [
            -72.9575,
            43.93916667
          ]
        }
      },
      {
        "type": "Feature",
        "properties": {
          "name": "Okemo Mountain",
          "wikipedia": "https://en.wikipedia.org/wiki/Okemo_Mountain"
        },
        "geometry": {
          "type": "Point",
          "coordinates": [
            -72.71666667,
            43.40138889
          ]
        }
      },
      {
        "type": "Feature",
        "properties": {
          "name": "Pico Mountain",
          "wikipedia": "https://en.wikipedia.org/wiki/Pico_Mountain"
        },
        "geometry": {
          "type": "Point",
          "coordinates": [
            -72.8425,
            43.66166667
          ]
        }
      },
      {
        "type": "Feature",
        "properties": {
          "name": "Stratton Mountain Resort",
          "wikipedia": "https://en.wikipedia.org/wiki/Stratton_Mountain_Resort"
        },
        "geometry": {
          "type": "Point",
          "coordinates": [
            -72.90666667,
            43.11416667
          ]
        }
      },
      {
        "type": "Feature",
        "properties": {
          "name": "Suicide Six",
          "wikipedia": "https://en.wikipedia.org/wiki/Suicide_Six"
        },
        "geometry": {
          "type": "Point",
          "coordinates": [
            -72.54444444,
            43.66388889
          ]
        }
      }
    ],
    "-72": [
      {
        "type": "Feature",
        "properties": {
          "name": "Waterville Valley Resort",
          "wikipedia": "https://en.wikipedia.org/wiki/Waterville_Valley_Resort"
        },
        "geometry": {
          "type": "Point",
          "coordinates": [
            -71.52777778,
            43.96527778
          ]
        }
      }
    ],
    "-75": [
      {
        "type": "Feature",
        "properties": {
          "name": "McCauley Mountain (New York)",
          "wikipedia": "https://en.wikipedia.org/wiki/McCauley_Mountain_(New_York)"
        },
        "geometry": {
          "type": "Point",
          "coordinates": [
            -74.96138889,
            43.69611111
          ]
        }
      }
    ],
    "-87": [
      {
        "type": "Feature",
        "properties": {
          "name": "Mulligan's Hollow Ski Bowl",
          "wikipedia": "https://en.wikipedia.org/wiki/Mulligan%27s_Hollow_Ski_Bowl"
        },
        "geometry": {
          "type": "Point",
          "coordinates": [
            -86.2393,
            43.0564
          ]
        }
      }
    ],
    "-90": [
      {
        "type": "Feature",
        "properties": {
          "name": "Cascade Mountain (ski area)",
          "wikipedia": "https://en.wikipedia.org/wiki/Cascade_Mountain_(ski_area)"
        },
        "geometry": {
          "type": "Point",
          "coordinates": [
            -89.51801667,
            43.50392778
          ]
        }
      },
      {
        "type": "Feature",
        "properties": {
          "name": "Tyrol Basin",
          "wikipedia": "https://en.wikipedia.org/wiki/Tyrol_Basin"
        },
        "geometry": {
          "type": "Point",
          "coordinates": [
            -89.77772,
            43.042747
          ]
        }
      }
    ],
    "-117": [
      {
        "type": "Feature",
        "properties": {
          "name": "Bogus Basin",
          "wikipedia": "https://en.wikipedia.org/wiki/Bogus_Basin"
        },
        "geometry": {
          "type": "Point",
          "coordinates": [
            -116.104,
            43.764
          ]
        }
      }
    ],
    "-112": [
      {
        "type": "Feature",
        "properties": {
          "name": "Kelly Canyon",
          "wikipedia": "https://en.wikipedia.org/wiki/Kelly_Canyon"
        },
        "geometry": {
          "type": "Point",
          "coordinates": [
            -111.63,
            43.64583333
          ]
        }
      }
    ],
    "-115": [
      {
        "type": "Feature",
        "properties": {
          "name": "Rotarun Ski Area",
          "wikipedia": "https://en.wikipedia.org/wiki/Rotarun_Ski_Area"
        },
        "geometry": {
          "type": "Point",
          "coordinates": [
            -114.366,
            43.4975
          ]
        }
      },
      {
        "type": "Feature",
        "properties": {
          "name": "Soldier Mountain",
          "wikipedia": "https://en.wikipedia.org/wiki/Soldier_Mountain"
        },
        "geometry": {
          "type": "Point",
          "coordinates": [
            -114.83,
            43.485
          ]
        }
      },
      {
        "type": "Feature",
        "properties": {
          "name": "Bald Mountain (Idaho)",
          "wikipedia": "https://en.wikipedia.org/wiki/Bald_Mountain_(Idaho)"
        },
        "geometry": {
          "type": "Point",
          "coordinates": [
            -114.40916667,
            43.655
          ]
        }
      }
    ],
    "-111": [
      {
        "type": "Feature",
        "properties": {
          "name": "Grand Targhee Resort",
          "wikipedia": "https://en.wikipedia.org/wiki/Grand_Targhee_Resort"
        },
        "geometry": {
          "type": "Point",
          "coordinates": [
            -110.957,
            43.789
          ]
        }
      },
      {
        "type": "Feature",
        "properties": {
          "name": "Jackson Hole Mountain Resort",
          "wikipedia": "https://en.wikipedia.org/wiki/Jackson_Hole_Mountain_Resort"
        },
        "geometry": {
          "type": "Point",
          "coordinates": [
            -110.89,
            43.59
          ]
        }
      }
    ]
  },
  "44": {
    "2": [
      {
        "type": "Feature",
        "properties": {
          "name": "Laguiole",
          "wikipedia": "https://en.wikipedia.org/wiki/Laguiole"
        },
        "geometry": {
          "type": "Point",
          "coordinates": [
            2.8481,
            44.685
          ]
        }
      }
    ],
    "3": [
      {
        "type": "Feature",
        "properties": {
          "name": "Laubert",
          "wikipedia": "https://en.wikipedia.org/wiki/Laubert"
        },
        "geometry": {
          "type": "Point",
          "coordinates": [
            3.6411,
            44.5864
          ]
        }
      },
      {
        "type": "Feature",
        "properties": {
          "name": "Mont Aigoual",
          "wikipedia": "https://en.wikipedia.org/wiki/Mont_Aigoual"
        },
        "geometry": {
          "type": "Point",
          "coordinates": [
            3.575,
            44.12277778
          ]
        }
      },
      {
        "type": "Feature",
        "properties": {
          "name": "Mont Lozère",
          "wikipedia": "https://en.wikipedia.org/wiki/Mont_Loz%C3%A8re"
        },
        "geometry": {
          "type": "Point",
          "coordinates": [
            3.73916667,
            44.42611111
          ]
        }
      },
      {
        "type": "Feature",
        "properties": {
          "name": "Nasbinals",
          "wikipedia": "https://en.wikipedia.org/wiki/Nasbinals"
        },
        "geometry": {
          "type": "Point",
          "coordinates": [
            3.0472,
            44.6631
          ]
        }
      },
      {
        "type": "Feature",
        "properties": {
          "name": "Saint-Urcize",
          "wikipedia": "https://en.wikipedia.org/wiki/Saint-Urcize"
        },
        "geometry": {
          "type": "Point",
          "coordinates": [
            3.0047,
            44.6975
          ]
        }
      }
    ],
    "4": [
      {
        "type": "Feature",
        "properties": {
          "name": "Orange, Vaucluse",
          "wikipedia": "https://en.wikipedia.org/wiki/Orange,_Vaucluse"
        },
        "geometry": {
          "type": "Point",
          "coordinates": [
            4.8097,
            44.1383
          ]
        }
      },
      {
        "type": "Feature",
        "properties": {
          "name": "Les Estables",
          "wikipedia": "https://en.wikipedia.org/wiki/Les_Estables"
        },
        "geometry": {
          "type": "Point",
          "coordinates": [
            4.155,
            44.9053
          ]
        }
      }
    ],
    "5": [
      {
        "type": "Feature",
        "properties": {
          "name": "Col de Rousset",
          "wikipedia": "https://en.wikipedia.org/wiki/Col_de_Rousset"
        },
        "geometry": {
          "type": "Point",
          "coordinates": [
            5.40600278,
            44.84061111
          ]
        }
      },
      {
        "type": "Feature",
        "properties": {
          "name": "La Jarjatte",
          "wikipedia": "https://en.wikipedia.org/wiki/La_Jarjatte"
        },
        "geometry": {
          "type": "Point",
          "coordinates": [
            5.756149,
            44.675367
          ]
        }
      },
      {
        "type": "Feature",
        "properties": {
          "name": "Valdrôme",
          "wikipedia": "https://en.wikipedia.org/wiki/Valdr%C3%B4me"
        },
        "geometry": {
          "type": "Point",
          "coordinates": [
            5.573,
            44.505
          ]
        }
      },
      {
        "type": "Feature",
        "properties": {
          "name": "Chichilianne",
          "wikipedia": "https://en.wikipedia.org/wiki/Chichilianne"
        },
        "geometry": {
          "type": "Point",
          "coordinates": [
            5.5731,
            44.8122
          ]
        }
      },
      {
        "type": "Feature",
        "properties": {
          "name": "Gresse-en-Vercors",
          "wikipedia": "https://en.wikipedia.org/wiki/Gresse-en-Vercors"
        },
        "geometry": {
          "type": "Point",
          "coordinates": [
            5.5675,
            44.9031
          ]
        }
      },
      {
        "type": "Feature",
        "properties": {
          "name": "La Motte-d'Aveillans",
          "wikipedia": "https://en.wikipedia.org/wiki/La_Motte-d%27Aveillans"
        },
        "geometry": {
          "type": "Point",
          "coordinates": [
            5.7458,
            44.9619
          ]
        }
      },
      {
        "type": "Feature",
        "properties": {
          "name": "Tréminis",
          "wikipedia": "https://en.wikipedia.org/wiki/Tr%C3%A9minis"
        },
        "geometry": {
          "type": "Point",
          "coordinates": [
            5.7697,
            44.7483
          ]
        }
      },
      {
        "type": "Feature",
        "properties": {
          "name": "Chalet Reynard",
          "wikipedia": "https://en.wikipedia.org/wiki/Chalet_Reynard"
        },
        "geometry": {
          "type": "Point",
          "coordinates": [
            5.31916667,
            44.1525
          ]
        }
      }
    ],
    "6": [
      {
        "type": "Feature",
        "properties": {
          "name": "Pra-Loup",
          "wikipedia": "https://en.wikipedia.org/wiki/Pra-Loup"
        },
        "geometry": {
          "type": "Point",
          "coordinates": [
            6.601,
            44.369
          ]
        }
      },
      {
        "type": "Feature",
        "properties": {
          "name": "Ancelle",
          "wikipedia": "https://en.wikipedia.org/wiki/Ancelle"
        },
        "geometry": {
          "type": "Point",
          "coordinates": [
            6.2072,
            44.6242
          ]
        }
      },
      {
        "type": "Feature",
        "properties": {
          "name": "Arvieux",
          "wikipedia": "https://en.wikipedia.org/wiki/Arvieux"
        },
        "geometry": {
          "type": "Point",
          "coordinates": [
            6.7397,
            44.7672
          ]
        }
      },
      {
        "type": "Feature",
        "properties": {
          "name": "Ceillac",
          "wikipedia": "https://en.wikipedia.org/wiki/Ceillac"
        },